Street,Full,Lat,Long
A Kung Ngam,"A Kung Ngam, Hong Kong",22.2814114,114.2338487
A Kung Ngam Road,"A Kung Ngam Rd, Hong Kong",22.2787355,114.2314317
A Kung Ngam Village Lane,"A Kung Ngam Village Rd, Hong Kong",22.2820736,114.2325266
A Kung Ngam Village Road,"A Kung Ngam Village Rd, Hong Kong",22.2820736,114.2325266
Aberdeen Main Road,"Aberdeen Main Rd, Aberdeen, Hong Kong",22.2485524,114.155661
Aberdeen Praya Road,"Aberdeen Praya Rd, Hong Kong",22.247975,114.1531175
Aberdeen Reservoir Road,"Aberdeen Reservoir Rd, Hong Kong",22.2584518,114.1626375
Aberdeen Street,"Aberdeen St, Hong Kong",22.2835267,114.1525191
Airport Drive No. 2,"Hong Kong International Airport (HKG), 1 Sky Plaza Rd, Chek Lap Kok, Hong Kong",22.308047,113.9184808
Albany Road,"Albany Rd, Hong Kong",22.2778698,114.155521
Albert Path,"Albert Path, Hong Kong",22.2791433,114.156421
Aldrich Bay,"Aldrich Bay Rd, Hong Kong",22.2797217,114.2274559
Aldrich Bay Road,"Aldrich Bay Rd, Hong Kong",22.2797217,114.2274559
Aldrich Street,"Aldrich St, Shau Kei Wan, Hong Kong",22.2777976,114.2284334
Algar Court,"Algar Ct, Sai Wan, Hong Kong",22.2867344,114.1414352
Alnwick Road,"Alnwick Rd, Beacon Hill, Hong Kong",22.3429858,114.1780298
Alveston Terrace,Hong Kong,22.396428,114.109497
Anchor Street,"Anchor St, Tai Kok Tsui, Hong Kong",22.320176,114.1638066
Anhui Street,"Anhui St, To Kwa Wan, Hong Kong",22.3149969,114.1871867
Anton Street,"Anton St, Wan Chai, Hong Kong",22.2773171,114.1690014
Ap Lei Chau,"Ap Lei Chau, Hong Kong",22.2418581,114.1528532
Ap Lei Chau Bridge Road,"Ap Lei Chau Bridge Rd, Hong Kong",22.2434299,114.155637
Ap Lei Chau Drive,"Ap Lei Chau Dr, Ap Lei Chau, Hong Kong",22.2433834,114.1583195
Ap Lei Chau Praya Road,"Ap Lei Chau Praya Rd, Ap Lei Chau, Hong Kong",22.2422119,114.1588588
Apliu Street,"Apliu St, Hong Kong",22.328985,114.1635447
Arbuthnot Road,"Arbuthnot Rd, Hong Kong",22.2802879,114.1544569
Argyle Street,"Argyle St, Hong Kong",22.3221761,114.1797685
Arran Lane,"Arran Ln, Mong Kok, Hong Kong",22.3220268,114.1659858
Arran Street,"Arran St, Mong Kok, Hong Kong",22.3227177,114.1669971
Arrivals Road,"Dragonair House, 11 Tung Fai Road, Hong Kong International Airport, Chek Lap Kok, Lantau Island, Hong Kong, Hong Kong",22.3031278,113.9386694
Arsenal Street,"Arsenal St, Wan Chai, Hong Kong",22.2783366,114.1692566
Arthur Street,"Arthur St, Yau Ma Tei, Hong Kong",22.3110764,114.1705348
Ash Street,"Ash St, Tai Kok Tsui, Hong Kong",22.3204474,114.1646929
Ashley Road,"Ashley Rd, Tsim Sha Tsui, Hong Kong",22.2966412,114.1705685
Austin Avenue,"Austin Ave, Tsim Sha Tsui, Hong Kong",22.3024673,114.1753879
Austin Road,"Austin Rd, Hong Kong",22.3032899,114.1725557
Austin Road West,"Austin Rd, Hong Kong",22.3032899,114.1725557
Babington Path,"Babington Path, Mid-level, Hong Kong",22.2842065,114.1426127
Bailey Street,"Old Bailey St, Hong Kong",22.2813889,114.1535083
Baker Court,"Baker Ct, Hung Hom, Hong Kong",22.3068149,114.1835868
Baker Street,"Baker St, Hung Hom, Hong Kong",22.3061823,114.1853221
Bank Street,"Bank St, Tanga, Tanzania",-5.070810499999999,39.1018023
Baptist University Road,"Baptist University Rd, Kowloon Tsai, Hong Kong",22.3354512,114.1829159
Barker Road,"Barker Rd, The Peak, Hong Kong",22.2706433,114.1582176
Basel Road,"Basel Rd, Shau Kei Wan, Hong Kong",22.2812919,114.2310684
Battery Path,"Battery Path, Central, Hong Kong",22.2792219,114.1596169
Battery Street,"Battery St, Yau Ma Tei, Hong Kong",22.3078978,114.1689855
Beach Road,"Beach Rd, Repulse Bay, Hong Kong",22.2376085,114.1963411
Beacon Hill Road,"Beacon Hill Rd, Beacon Hill, Hong Kong",22.3429732,114.1752783
Beautiful Terrace,Hong Kong,22.396428,114.109497
Bedford Road,"Bedford Rd, Tai Kok Tsui, Hong Kong",22.3231171,114.1636602
Beech Street,"Beech St, Tai Kok Tsui, Hong Kong",22.3207516,114.1631886
Begonia Road,"Begonia Rd, Yau Yat Chuen, Hong Kong",22.3320885,114.173683
Bel-Air Avenue,"Bel-air Ave, Telegraph Bay, Hong Kong",22.258242,114.1319573
Bel-Air Peak Avenue,"Bel-air Peak Ave, Telegraph Bay, Hong Kong",22.2542631,114.1332741
Bel-Air Peak Rise,"Bel-air Peak Rise, Telegraph Bay, Hong Kong",22.2551775,114.1325124
Bel-Air Rise,"Bel-air Rise, Telegraph Bay, Hong Kong",22.2582351,114.131561
Belcher Gardens,"Belcher's St, Sai Wan, Hong Kong",22.2835629,114.1304982
Belcher's Street,"Belcher's St, Sai Wan, Hong Kong",22.2835629,114.1304982
Belfran Road,"Belfran Rd, Prince Edward, Hong Kong",22.3262553,114.177058
Belleview Drive,"Belleview Dr, Repulse Bay, Hong Kong",22.238546,114.191691
Berwick Street,"Berwick St, Hong Kong",22.3322428,114.1653177
Big Wave Bay Road,"Big Wave Bay Rd, Shek O, Hong Kong",22.2407281,114.2467451
Bisney Road,"Bisney Rd, Hong Kong",22.270242,114.1285
Black's Link,"Black's Link, Hong Kong",22.2620498,114.1789325
Blenheim Avenue,"Blenheim Ave, Tsim Sha Tsui, Hong Kong",22.2968949,114.1745679
Blue Pool Road,"Blue Pool Rd, Hong Kong",22.2658679,114.1887804
Bluff Path,"Bluff Path, The Peak, Hong Kong",22.2664692,114.1545765
Boat Street,"Boat St, North Point, Hong Kong",22.2887224,114.1933717
Bonham Road,"Bonham Rd, Hong Kong",22.2844198,114.1425946
Bonham Strand,"Bonham Strand, Hong Kong",22.2860328,114.1509295
Bonham Strand West,"Bonham Strand W, Sheung Wan, Hong Kong",22.287358,114.148105
Borrett Road,"Borrett Rd, Mid-level, Hong Kong",22.2742559,114.1632961
Boundary Street,"Boundary St, Hong Kong",22.3266279,114.1747375
Boundary Street,"Boundary St, Hong Kong",22.3266279,114.1747375
Bowen Drive,"Bowen Dr, Mid-level, Hong Kong",22.2743109,114.1663403
Bowen Road,"Bowen Rd, Hong Kong",22.273956,114.1681801
Bowring Street,"Bowring St, Yau Ma Tei, Hong Kong",22.3042584,114.1698782
Bowrington Road,"Bowrington Rd, Wan Chai, Hong Kong",22.2779675,114.180633
Boyce Road,"Boyce Rd, Jardine's Lookout, Hong Kong",22.2695574,114.195435
Braemar Hill Road,"Braemar Hill Rd, Hong Kong",22.2862375,114.2001065
Braemar Terrace,"Braemar Terrace, Tsat Tsz Mui, Hong Kong",22.290004,114.2075268
Braga Circuit,"Braga Circuit, Kadoorie Hill, Hong Kong",22.323448,114.1768767
Breezy Path,"Breezy Path, Mid-level, Hong Kong",22.2833129,114.1460097
Breezy Terrace,"Breezy Path, Mid-level, Hong Kong",22.2834601,114.1457798
Brewin Path,"Brewin Path, Mid-level, Hong Kong",22.2744917,114.1559879
Briar Avenue,"Briar Ave, Happy Valley, Hong Kong",22.2638872,114.1891785
Bridges Street,"Bridges St, Tai Ping Shan, Hong Kong",22.2835468,114.1499573
Bristol Avenue,"Bristol Ave, Tsim Sha Tsui, Hong Kong",22.2973842,114.1729724
Broadcast Drive,"Broadcast Dr, Hong Kong",22.3412722,114.1807523
Broadway,"33 Tsing King Rd, Tsing Yi, Hong Kong",22.3586112,114.1078442
Broadwood Road,"Broadwood Rd, Hong Kong",22.2716198,114.1863328
Broom Road,"Broom Rd, Happy Valley, Hong Kong",22.264362,114.1881875
Brown Street,"Brown St, Hong Kong",22.2786306,114.1918414
Bulkeley Street,"Bulkeley St, Hung Hom, Hong Kong",22.3073209,114.1849677
Bullock Lane,"Bullock Ln, Wan Chai, Hong Kong",22.2766121,114.1758365
Burd Street,"Burd St, Sheung Wan, Hong Kong",22.2852205,114.151422
Burrows Street,"Burrows St, Wan Chai, Hong Kong",22.2768298,114.1765086
Bute Street,"Bute St, Prince Edward, Hong Kong",22.3219436,114.1682997
Butterfly Valley Road,"Butterfly Valley Rd, Hong Kong",22.3386265,114.1442548
Cadogan Street,"Cadogan St, Sai Wan, Hong Kong",22.2823588,114.126074
Caine Lane,"Caine Ln, Tai Ping Shan, Hong Kong",22.2835447,114.1483813
Caine Road,"Caine Rd, Hong Kong",22.2815833,114.1517189
Caldecott Road,"Caldecott Rd, Hong Kong",22.3442616,114.1490143
Calder Path,"Calder Path, Mid-level, Hong Kong",22.2757981,114.1585817
Cambridge Road,"Cambridge Rd, Kowloon Tsai, Hong Kong",22.332259,114.1796136
Cameron Lane,"Cameron Ln, Tsim Sha Tsui, Hong Kong",22.2990364,114.1727461
Cameron Road,"Cameron Rd, Tsim Sha Tsui, Hong Kong",22.2991181,114.174171
Camp Street,"Camp St, Hong Kong",22.3344515,114.160305
Canal Road East,"Canal Rd E, Bowrington, Hong Kong",22.278724,114.1814088
Canal Road West,"Canal Rd E, Bowrington, Hong Kong",22.278724,114.1814088
Cannon Street,"Cannon St, Causeway Bay, Hong Kong",22.2812871,114.1836784
Canton Road,"Canton Rd, Hong Kong",22.309215,114.1688396
Cape Collinson Road,"Cape Collinson Rd, Hong Kong",22.2594877,114.2387556
Cape D'aguilar Road,"Cape D’Aguilar Rd, Shek O, Hong Kong",22.214066,114.2448979
Cape Drive,"Cape Dr, Chung Hom Kok, Hong Kong",22.2179675,114.2054327
Cape Road,"Cape Rd, Hong Kong",22.2192216,114.2067646
Cargo Circuit,"7 Cargo Circuit, Kai Tak, Hong Kong",22.327667,114.204735
Carmel Road,"Carmel Rd, Hong Kong",22.2203871,114.2092653
Carmel Village Street,"Carmel Village St, No. 12 Hill, Hong Kong",22.3145342,114.1794068
Carnarvon Road,"Carnarvon Rd, Tsim Sha Tsui, Hong Kong",22.2991958,114.1736184
Caroline Hill Road,"Caroline Hill Rd, Hong Kong",22.2767407,114.1875873
Carpenter Road,"Carpenter Rd, Kowloon City, Hong Kong",22.3305745,114.1901969
Cassia Road,"Cassia Rd, Yau Yat Chuen, Hong Kong",22.330868,114.173116
Castle Lane,"Castle Ln, Mid-level, Hong Kong",22.2818039,114.1508835
Castle Peak Road,"Castle Peak Rd (Ting Kau), Hong Kong",22.3680416,114.0844176
Castle Road,"Castle Rd, Mid-level, Hong Kong",22.2822155,114.1496298
Castle Steps,"Castle Steps, Mid-level, Hong Kong",22.2815844,114.1497261
Catchick Street,"Catchick St, Sai Wan, Hong Kong",22.2832031,114.1275577
Causeway Road,"Causeway Rd, Causeway Bay, Hong Kong",22.2807437,114.1897862
Cedar Street,"Cedar St, Mong Kok, Hong Kong",22.3250217,114.1664955
Centre Street,"Centre St, Sai Wan, Hong Kong",22.286531,114.142282
Cha Keo Ling Road,"Cha Kwo Ling Rd, Hong Kong",22.2991393,114.232866
Chai Wan Road,"Chai Wan Rd, Hong Kong",22.270687,114.2336149
Chak On Road,"Chak On Rd, Tai Woh Ping, Hong Kong",22.3404701,114.1640693
Chak On Road South,"Chak On Rd S, Pak Tin, Hong Kong",22.3385727,114.1656267
Chan Tong Lane,"Chan Tong Ln, Wan Chai, Hong Kong",22.2779072,114.1802632
Chancery Lane,"Chancery Ln, Central, Hong Kong",22.2806088,114.1539271
Chang Fa Avenue,"Chang Fa Ave, Choi Hung Estate, Hong Kong",22.3361912,114.2057148
Changsha Street,"Changsha St, Mong Kok, Hong Kong",22.3159539,114.1694128
Chater Road,"Chater Rd, Central, Hong Kong",22.2814513,114.1599193
Chatham Court,"Chatham Ct, Tsim Sha Tsui, Hong Kong",22.3017396,114.1759868
Chatham Path,"Chatham path, Hong Kong",22.2724774,114.1577508
Chatham Road North,"Chatham Rd N, Hong Kong",22.3094993,114.1841756
Chatham Road South,"Chatham Rd S, Hong Kong",22.3023478,114.1769598
Chengtu Road,"Chengtu Rd, Aberdeen, Hong Kong",22.2485297,114.1547815
Cheong Hang Lane,"Cheong Hang Ln, Hung Hom, Hong Kong",22.3066605,114.182573
Cheong Hang Road,"Cheong Hang Rd, Hung Hom, Hong Kong",22.3061167,114.1828581
Cheong Lok Street,"Cheong Lok St, Yau Ma Tei, Hong Kong",22.3065642,114.1720745
Cheong Ming Street,"Cheong Ming St, Happy Valley, Hong Kong",22.2684482,114.1867131
Cheong San Lane,"Cheong San Ln, Sham Shui Po, Hong Kong",22.3266392,114.1584956
Cheong Tung Road,"Cheong Tung Rd, Hung Hom, Hong Kong",22.3057277,114.1831084
Cheong Tung Road South,"Cheong Tung Rd S, Hung Hom, Hong Kong",22.3029877,114.1841702
Cheong Wan Road,"Cheong Wan Rd, Hong Kong",22.3035889,114.1814041
Cherry Street,"Cherry St, Hong Kong",22.3181703,114.1617391
Chester Road,"Chester Rd, Kowloon Tsai, Hong Kong",22.3292514,114.1791054
Cheung Fat Street,"Cheung Fat St, Hong Kong",22.3395525,114.1571286
Cheung Hang Road,"Cheung Hang Rd, Lai Chi Kok, Hong Kong",22.3432571,114.1426795
Cheung Hing Street,"Hing Wan St, Wan Chai, Hong Kong",22.2737246,114.174246
Cheung Hong Street,"Cheung Hong St, North Point, Hong Kong",22.2893111,114.1959562
Cheung Kan Lane,"Cheung Kan Ln, Sai Wan, Hong Kong",22.2868512,114.1327163
Cheung Lai Street,"Cheung Lai St, Cheung Sha Wan, Hong Kong",22.3363496,114.1481136
Cheung Lee Street,"Cheung Lee St, Chai Wan, Hong Kong",22.2652299,114.2356251
Cheung Man Road,"Cheung Man Rd, Hong Kong",22.2679842,114.2368331
Cheung Mou Street,"Cheung Mou St, Cheung Sha Wan, Hong Kong",22.3355311,114.1466807
Cheung Ning Street,"Cheung Ning St, To Kwa Wan, Hong Kong",22.3175508,114.1899087
Cheung On Lane,"Cheung Woo Ln, Wan Chai, Hong Kong",22.2770118,114.1807891
Cheung Sha Wan Path,"Cheung Sha Wan Rd, Hong Kong",22.3345978,114.1572377
Cheung Sha Wan Road,"Cheung Sha Wan Rd, Hong Kong",22.3345978,114.1572377
Cheung Shui Street,"18 Chak Cheung St, Ma Liu Shui, Hong Kong",22.4118468,114.2109985
Cheung Shun Street,"Cheung Shun St, Cheung Sha Wan, Hong Kong",22.3363403,114.1472568
Cheung Tak Lane,"Cheung Tak Ln, Wan Chai, Hong Kong",22.2760571,114.1801018
Cheung Wah Street,"Cheung Wah St, Hong Kong",22.3394985,114.153965
Cheung Wong Road,"Cheung Wong Rd, Mong Kok, Hong Kong",22.3198942,114.1663543
Cheung Woo Lane,"Cheung Woo Ln, Wan Chai, Hong Kong",22.2770118,114.1807891
Cheung Yee Street,"Cheung Yee St, Cheung Sha Wan, Hong Kong",22.3361026,114.1482024
Cheung Yip Street,"Cheung Yip St, Hong Kong",22.3167326,114.2116952
Cheung Yue Street,"Cheung Yue St, Cheung Sha Wan, Hong Kong",22.3372353,114.149973
Chi Fu Close,"Chi Fu Cl, Pok Fu Lam, Hong Kong",22.2566174,114.1385419
Chi Fu Road,"Chi Fu Rd, Pok Fu Lam, Hong Kong",22.2579259,114.1391691
Chi Kiang Street,"Chi Kiang St, Hong Kong",22.3148855,114.189521
Chi Lin Drive,"Chi Lin Dr, Hong Kong",22.3404973,114.2059383
Chi Man Street,"Chi Man St, No. 12 Hill, Hong Kong",22.311359,114.177695
Chi Shing Lane,"Chi Shing Rd, Clear Water Bay, Hong Kong",22.3020388,114.2953169
Chi Wo Street,"Chi Wo St, Yau Ma Tei, Hong Kong",22.3068606,114.1725653
Chico Terrace,"Chico Terrace, Mid-level, Hong Kong",22.2806492,114.151407
Ching Cheung Road,"Ching Cheung Rd, Hong Kong",22.3404748,114.1488388
Ching Fai Street,"Ching Fai St, Tsz Wan Shan, Hong Kong",22.3504779,114.2012247
Ching Lin Terrace,"Ching Lin Terrace, Sai Wan, Hong Kong",22.2828505,114.1315655
Ching Ping Street,"Ching Ping St, Yau Ma Tei, Hong Kong",22.3105431,114.1678037
Ching Road,"Pui Ching Rd, Hong Kong",22.3177941,114.1775822
Ching Sau Lane,"Ching Sau Ln, Chung Hom Kok, Hong Kong",22.2189763,114.2057635
Ching Shan Street,"Ching Shan St, Hung Hom, Hong Kong",22.3018324,114.184497
Ching Tak Street,"Ching Tak St, Chuk Un, Hong Kong",22.3392971,114.1928323
Ching Wah Street,"Ching Wah St, North Point, Hong Kong",22.2890214,114.198024
Ching Yeung Avenue,"Ching Yeung Ave, Ngau Chi Wan, Hong Kong",22.3360232,114.2060724
Chiu Kwong Street,"Chiu Kwong St, Sai Ying Pun, Hong Kong",22.2875049,114.1394476
Chiu Lung Street,"Chiu Lung St, Central, Hong Kong",22.2826022,114.156697
Cho Yuen Street,"Cho Yuen St, Yau Tong, Hong Kong",22.2940913,114.2369556
Choi Chuk Street,"Choi Chuk St, Chuk Un, Hong Kong",22.3436448,114.1900767
Choi Fung Path,"Choi Fung Path, Ngau Chi Wan, Hong Kong",22.334698,114.213544
Choi Ha Road,"Choi Ha Rd, Hong Kong",22.3261546,114.215924
Choi Hei Road,"Choi Hei Rd, Ngau Tau Kok, Hong Kong",22.3265509,114.2176736
Choi Hing Lane,"Choi Hing Ln, Hong Kong",22.3318407,114.2146659
Choi Hing Road,"Choi Hing Rd, Ping Shan, Hong Kong",22.3312276,114.2130617
Choi Hung Road,"Choi Hung Rd, Hong Kong",22.338279,114.201206
Choi Shek Lane,"彩盛里, Ngau Tau Kok, Hong Kong",22.330881,114.211082
Choi Shek Road,"Choi Shek Rd, Ngau Tau Kok, Hong Kong",22.3305905,114.211261
Choi Wan Road,"Choi Wan Rd, Ngau Tau Kok, Hong Kong",22.3273944,114.2141921
Choi Wing Lane,"Choi Wing Ln, Ping Shan, Hong Kong",22.3303018,114.2162376
Choi Wing Road,"Choi Wing Rd, Ping Shan, Hong Kong",22.3298126,114.2154061
Choi Yee Lane,"Choi Yee Ln, Hong Kong",22.3374104,114.2017652
Chong Fu Road,"Chong Fu Rd, Hong Kong",22.273384,114.24283
Chong Yip Street,"Chong Yip St, Kwun Tong, Hong Kong",22.3141664,114.2199424
Chui Chuk Street,"Chui Chuk St, Hong Kong",22.345812,114.1890955
Chui Hang Street,"Chui Hang St, Chai Wan, Hong Kong",22.2650731,114.2361858
Chui Yu Road,"Chui Yu Rd, Hong Kong",22.3250405,114.1600171
Chuk Hing Lane,Hong Kong,22.396428,114.109497
Chuk Kui Terrace,"Chui Kui Terrace, Hong Kong",22.2740506,114.1720011
Chuk Lin Lane,"Chuk Lin Ln, Hong Kong",22.2862883,114.1474385
Chuk On Lane,"Sing Teck Factory Building, 44 Wong Chuk Hang Rd, Hong Kong",22.248569,114.167019
Chuk Yuen Road,"Chuk Yuen Rd, Hong Kong",22.3451008,114.1895493
Chun Fai Road,"Chun Fai Rd, Tai Hang, Hong Kong",22.2734645,114.1935561
Chun Fai Terrace,"Chun Fai Terrace, Tai Hang, Hong Kong",22.2753573,114.1943448
Chun Shing Street,"Chun Shing St, Happy Valley, Hong Kong",22.2665353,114.1870663
Chun Tin Street,"Chun Tin St, Hung Hom, Hong Kong",22.310979,114.1881142
Chun Wah Road,"Chun Wah Rd, Hong Kong",22.3219584,114.2209313
Chun Wing Street,"Chun Wing St, Tai Kok Tsui, Hong Kong",22.3185452,114.1615555
Chun Yan Street,"Chun Yan St, Chuk Un, Hong Kong",22.3398855,114.1969696
Chun Yeung Street,"Chun Yeung St, North Point, Hong Kong",22.2912572,114.1978103
Chun Yi Lane,"Chun Yi Ln, Yau Ma Tei, Hong Kong",22.3135225,114.1728265
Chung Ching Street,"Chung Ching St, Sai Wan, Hong Kong",22.2874503,114.1412387
Chung Hau Street,"Chung Hau St, Hong Kong",22.3144374,114.180833
Chung Hom Kok Road,"Chung Hom Kok Rd, Chung Hom Kok, Hong Kong",22.2161156,114.2009833
Chung King Road,"Chung King Rd, Sheung Wan, Hong Kong",22.2884658,114.1495542
Chung Kong Road,"Chung Kong Rd, Sheung Wan, Hong Kong",22.288385,114.1505635
Chung Man Street,"Chung Man St, No. 12 Hill, Hong Kong",22.3149988,114.177582
Chung On Terrace,"Chung Shan Terrace, Lai Chi Kok, Hong Kong",22.344214,114.1383083
Chung Sun Street,"Chung Sun St, Ma Tau Kok, Hong Kong",22.3196727,114.1940429
Chung Wo Lane,"Chung Wo Ln, Central, Hong Kong",22.282864,114.151412
Chung Wui Street,"Chung Wui St, Tai Kok Tsui, Hong Kong",22.3225554,114.1608262
Chung Yee Street,"Chung Yee Street, No. 12 Hill, Hong Kong",22.3113871,114.1806176
Church Lane,"Church Ln, Shau Kei Wan, Hong Kong",22.2772367,114.2287944
Church Street,"2nd Floor, MSR Westpark, # 3, Church Street, Opp Church Street Metro Station, Off Bridage Road, Bengaluru, Karnataka 560001, India",12.9742599,77.6067889
Circular Pathway,"Circular Pathway, Tai Ping Shan, Hong Kong",22.2842766,114.1505422
City Garden Road,"City Garden Rd, North Point, Hong Kong",22.2906531,114.1941631
Clarence Terrace,"Clarence Terrace, Sai Wan, Hong Kong",22.2851596,114.1364452
Claymore Avenue,"Claymore Ave, Pok Fu Lam, Hong Kong",22.2592784,114.1369183
Clear Water Bay Road,"Clear Water Bay Rd, Hong Kong",22.3266395,114.2656443
Clementi Road,"Clementi Rd, Jardine's Lookout, Hong Kong",22.271235,114.1965078
Cleveland Street,"Cleveland St, Causeway Bay, Hong Kong",22.2821784,114.1856444
Cleverly Street,"Cleverly St, Hong Kong",22.2860648,114.1511727
Cliff Road,"Cliff Rd, Yau Ma Tei, Hong Kong",22.3108472,114.1717678
Cloud View Road,"Cloud View Rd, Hong Kong",22.28587,114.196572
Clovelly Path,"Clovelly Path, Mid-level, Hong Kong",22.2739854,114.1555359
Club Street,"Club St, Central, Hong Kong",22.2815167,114.161337
Cochrane Street,"Cochrane St, Central, Hong Kong",22.2829948,114.1543715
College Road,"College Rd, Kowloon Tsai, Hong Kong",22.328165,114.1840688
College View,"College View, Sai Wan, Hong Kong",22.2855211,114.1457126
Collinson Street,"Collinson St, Shek Tong Tsui, Hong Kong",22.2857984,114.132204
Comet Drive,Hong Kong,22.396428,114.109497
Comet Road,Hong Kong,22.396428,114.109497
Comfort Terrace,"Comfort Terrace, Hong Kong",22.2866296,114.1940213
Concorde Road,"Concorde Rd, Kai Tak, Hong Kong",22.3325906,114.1992345
Conduit Road,"Conduit Rd, Mid-level, Hong Kong",22.2812233,114.1477455
Connaught Place,"Connaught Pl, Central, Hong Kong",22.283398,114.1587484
Connaught Road Central,"Connaught Rd Central, Hong Kong",22.2848077,114.156487
Connaught Road West,"Connaught Rd Central, Hong Kong",22.2848077,114.156487
Consort Rise,"Consort Rise, Sandy Bay, Hong Kong",22.2703204,114.127757
Convair Drive,Hong Kong,22.396428,114.109497
Convention Avenue,"Convention Ave, Hong Kong",22.2821205,114.1736318
Cooke Street,"Cooke St, Hung Hom, Hong Kong",22.307712,114.183503
Coombe Road,"Coombe Rd, The Peak, Hong Kong",22.2681398,114.167141
Cooper Road,"Cooper Rd, Jardine's Lookout, Hong Kong",22.268037,114.191211
Cornwall Avenue,"Cornwall St, Hong Kong",22.3398036,114.1728001
Cornwall Street,"Cornwall St, Hong Kong",22.3398036,114.1728001
Coronation Terrace,"Coronation Terrace, Central, Hong Kong",22.282245,114.151726
Cotton Path,"Cotton Path, Hong Kong",22.2773036,114.1881954
Cotton Tree Drive,"Cotton Tree Dr, Hong Kong",22.2783527,114.1612846
Cox's Path,"Cox's Rd, Yau Ma Tei, Hong Kong",22.3046315,114.1734684
Cox's Road,"Cox's Rd, Yau Ma Tei, Hong Kong",22.3046315,114.1734684
Creasy Road,"Creasy Rd, Jardine's Lookout, Hong Kong",22.2695832,114.1914112
Cross Lane,"Cross Ln, Wan Chai, Hong Kong",22.2764851,114.1765384
Cross Street,"Cross St, Wan Chai, Hong Kong",22.2755437,114.1734978
Crown Terrace,"Crown Terrace, Sandy Bay, Hong Kong",22.269886,114.1267565
Cumberland Road,"Cumberland Rd, Kowloon Tong, Hong Kong",22.3300779,114.1771233
Cyberport Road,"Cyberport Rd, Telegraph Bay, Hong Kong",22.2593108,114.1326957
D'aguilar Street,"D'Aguilar St, Central, Hong Kong",22.2811484,114.1555821
Dakota Drive,"Dakota Dr, Hong Kong",22.3272556,114.1920145
David Lane,"David Ln, Sai Wan, Hong Kong",22.2858472,114.1419081
Davis Street,"Davis St, Sai Wan, Hong Kong",22.2825397,114.126799
Deep Water Bay Drive,"Deep Water Bay Dr, Deep Water Bay, Hong Kong",22.2531326,114.1835355
Deep Water Bay Road,"Deep Water Bay Rd, Hong Kong",22.2538012,114.1867275
Departures Circuit,"Hong Kong International Airport (HKG), 1 Sky Plaza Rd, Chek Lap Kok, Hong Kong",22.308047,113.9184808
Derby Road,"Derby Rd, Kowloon Tsai, Hong Kong",22.3298001,114.1793286
Des Voeux Road Central,"Des Voeux Rd Central, Hong Kong",22.2840169,114.1561242
Des Voeux Road West,"Des Voeux Rd W, Hong Kong",22.2877569,114.1400532
Devon Road,"Devon Rd, Hong Kong",22.3390391,114.177395
Dianthus Road,"Dianthus Rd, Yau Yat Chuen, Hong Kong",22.3297434,114.1743761
Dock Street,"Dock St, Hung Hom, Hong Kong",22.306535,114.187147
Dorset Crescent,"Dorset Cres, Hong Kong",22.3386202,114.1783593
Douglas Lane,"Douglas Ln, Central, Hong Kong",22.2826972,114.1565269
Douglas Street,"Douglas St, Central, Hong Kong",22.2832459,114.1572861
Dragon Road,"Dragon Rd, Causeway Bay, Hong Kong",22.2822718,114.1929539
Dragon Terrace,"Dragon Terrace, Causeway Bay, Hong Kong",22.281333,114.1928565
Drake Street,"Drake St, Central, Hong Kong",22.2790338,114.1650041
Duddell Street,"Duddell St, Central, Hong Kong",22.2800097,114.1571907
Duke Street,"Duke St, Prince Edward, Hong Kong",22.326078,114.1752073
Dumbarton Road,"Dumbarton Rd, Kowloon Tsai, Hong Kong",22.331833,114.185541
Dunbar Road,"Dunbar Rd, Ho Man Tin, Hong Kong",22.3214439,114.1795261
Dundas Street,"Dundas St, Mong Kok, Hong Kong",22.3153623,114.1702539
Durham Road,"Durham Rd, Kowloon Tsai, Hong Kong",22.3325184,114.180392
Dyer Avenue,"Dyer Ave, Hung Hom, Hong Kong",22.3067714,114.190467
Earl Street,"Earl St, Kowloon Tsai, Hong Kong",22.3267914,114.1803704
East Embankment,Hong Kong,22.396428,114.109497
East Laguna Street,"Laguna St E, Laguna City, Hong Kong",22.3064154,114.2294329
East Point Road,"E Point Rd, Causeway Bay, Hong Kong",22.2806279,114.1846982
Eastbourne Road,"Eastbourne Rd, Beacon Hill, Hong Kong",22.3434853,114.1768869
Eastern Hospital Road,"Eastern Hospital Rd, Hong Kong",22.274525,114.189456
Eastern Road,"Eastern St, Sai Ying Pun, Hong Kong",22.2874001,114.1437559
Eastern Street,"Eastern St, Sai Ying Pun, Hong Kong",22.2874001,114.1437559
Eastern Street North,"Eastern St N, Sai Ying Pun, Hong Kong",22.2899372,114.1426868
Ede Road,"Ede Rd, Beacon Hill, Hong Kong",22.3426204,114.1776398
Edinburgh Place,"Edinburgh Pl, Central, Hong Kong",22.282891,114.161549
Electra Drive,Hong Kong,22.396428,114.109497
Electric Road,"Electric Rd, Hong Kong",22.2875767,114.1921337
Electric Street,"Electric Rd, Hong Kong",22.2875767,114.1921337
Elegance Road,"Elegance Rd, Hong Kong",22.3156678,114.2187282
Elgin Street,"Elgin St, Hong Kong",22.2817779,114.1524192
Elm Street,"Elm St, Tai Kok Tsui, Hong Kong",22.3209704,114.1626555
Embankment Road,"Embankment Rd, Hong Kong",22.3260729,114.1744422
Emma Avenue,"Emma Ave, Ho Man Tin, Hong Kong",22.3194368,114.1754638
Essex Crescent,"Essex Cres, Kowloon Tong, Hong Kong",22.3287097,114.1773559
Excelsior Terrace,"281 Gloucester Rd, Causeway Bay, Hong Kong",22.281845,114.184424
Expo Drive,"Expo Dr, Hong Kong",22.2826078,114.1711445
Expo Drive Central,"Expo Drive Central, Wan Chai, Hong Kong",22.2826315,114.1728412
Expo Drive East,"Expo Dr E, Hong Kong",22.2832733,114.1741887
Ezra's Lane,"Ezra's Ln, Central, Hong Kong",22.2821412,114.1542129
Fa Po Street,"Fa Po St, Hong Kong",22.3322188,114.1761809
Fa Yuen Street,"Fa Yuen St, Mong Kok, Hong Kong",22.3210427,114.1708037
Factory Street,"Factory St, Shau Kei Wan, Hong Kong",22.2772862,114.2294238
Fan Wa Street,"Fan Wa St, Cha Kwo Ling, Hong Kong",22.303424,114.2275353
Farm Road,"Farm Rd, Hong Kong",22.3210021,114.1866922
Fat Hing Street,"Fat Hing St, Hong Kong",22.2866336,114.1478112
Fat Kwong Street,"Fat Kwong St, Hong Kong",22.3131139,114.1820164
Fat Kwong Street Flyover,"Fat Kwong St Flyover, Hung Hom, Hong Kong",22.3088792,114.1872352
Fat Tseung Street,"Fat Tseung St, Hong Kong",22.3360101,114.1554175
Fat Tseung Street West,"Hong Kong, Cheung Sha Wan, Fat Tseung Street West",22.3315144,114.1514629
Fei Fung Street,"Fei Fung St, Chuk Un, Hong Kong",22.3436928,114.1965842
Fei Ngo Shan Road,"Fei Ngo Shan Rd, Clear Water Bay, Hong Kong",22.3452251,114.2254218
Fei Tsui Road,"Fei Tsui Rd, Hong Kong",22.2627655,114.2333203
Fenwick Pier Street,"Fenwick Pier St, Hong Kong",22.2808256,114.1695313
Fenwick Street,"Fenwick St, Wan Chai, Hong Kong",22.2790297,114.1704149
Ferry Street,"Ferry St, Hong Kong",22.312325,114.1670145
Fessenden Road,"Fessenden Rd, Beacon Hill, Hong Kong",22.3421493,114.1824548
Fife Street,"Fife St, Mong Kok, Hong Kong",22.320265,114.1692322
Finance Street,"Finance St, Central, Hong Kong",22.2863412,114.1581833
Findlay Path,"Findlay Path, The Peak, Hong Kong",22.2709811,114.1510784
Findlay Road,"Findlay Rd, The Peak, Hong Kong",22.2705243,114.1512792
Finnie Street,"Finnie St, Quarry Bay, Hong Kong",22.288381,114.210424
Fir Street,"Fir St, Tai Kok Tsui, Hong Kong",22.3215857,114.1649539
Fire Dragon Path,"Fire Dragon Path, Causeway Bay, Hong Kong",22.2804261,114.1915205
First Lane,"First Ln, Tai Hang, Hong Kong",22.2786764,114.1916245
First Street,"First St, Sai Ying Pun, Hong Kong",22.2865452,114.1417918
Fleming Road,"Fleming Rd, Wan Chai, Hong Kong",22.2794781,114.1745066
Flint Road,"Flint Rd, Kowloon Tsai, Hong Kong",22.328696,114.179523
Flower Market Path,"Flower Market Rd, Mong Kok, Hong Kong",22.3252325,114.1720897
Flower Market Road,"Flower Market Rd, Mong Kok, Hong Kong",22.3252325,114.1720897
Fong Wah Lane,"Fong Wah Ln, Tsz Wan Shan, Hong Kong",22.346966,114.2018565
Foo Kwai Street,"Foo Kwai St, Tai Kok Tsui, Hong Kong",22.3191225,114.161587
Foo Ming Street,"Foo Ming St, Causeway Bay, Hong Kong",22.2786739,114.1834905
Foo Yuen Street,"Foo Yuen St, San Po Kong, Hong Kong",22.3351432,114.1951552
Fook Lai Road,Hong Kong,22.396428,114.109497
Fook Yum Road,"Fook Yum Rd, Causeway Bay, Hong Kong",22.2882455,114.1916865
Forbes Street,"Forbes St, Sai Wan, Hong Kong",22.2813592,114.1273407
Forfar Road,"Forfar Rd, Ma Tau Wai, Hong Kong",22.3263542,114.1864093
Fort Street,"Fort St, North Point, Hong Kong",22.2897463,114.1968458
Fortress Hill Road,"Fortress Hill Rd, North Point, Hong Kong",22.2881797,114.1954739
Fortune Street,"Fortune St, Cheung Sha Wan, Hong Kong",22.3352158,114.1534405
Fu Chi Path,"Chi Fu Rd, Pok Fu Lam, Hong Kong",22.2579259,114.1391691
Fu Hong Street,"Fu Hong St, Hong Kong",22.267741,114.247738
Fu Keung Street,"Fu Keung St, Wang Tau Hom, Hong Kong",22.339663,114.185775
Fu Mei Street,"Fu Mei St, Wang Tau Hom, Hong Kong",22.340641,114.1866336
Fu Mei Street East,"Fu Mei St E, Lo Fu Ngam, Hong Kong",22.337951,114.188563
Fu Mei Street West,"Fu Mei St, Wang Tau Hom, Hong Kong",22.340641,114.1866336
Fu Mou Street,Hong Kong,22.396428,114.109497
Fu Ning Street,"Fu Ning St, Ma Tau Wai, Hong Kong",22.324893,114.1878674
Fu On Street,"Fu On St, Hong Kong",22.3369312,114.18509
Fu Tsui Street,"Fu Tsui St, Chai Wan, Hong Kong",22.262183,114.2389702
Fu Wan Street,"Fu Wan St, Wang Tau Hom, Hong Kong",22.3394225,114.185354
Fu Yan Street,"Fu Yan St, Kwun Tong, Hong Kong",22.314939,114.2242527
Fu Yee Road,"Fu Yee Rd, Siu Sai Wan, Hong Kong",22.2639115,114.2506375
Fu Yue Street,"Fu Yue St, Wang Tau Hom, Hong Kong",22.3413083,114.185649
Fuk Chak Street,"Fuk Chak St, Tai Kok Tsui, Hong Kong",22.3202926,114.1611592
Fuk Cheung Street,"Fuk Cheung St, Ma Tau Wai, Hong Kong",22.3246624,114.1864112
Fuk Chi Street,"Fuk Chi St, Hung Hom, Hong Kong",22.3060435,114.1849839
Fuk Hing Lane,"Fuk Hing Ln, Causeway Bay, Hong Kong",22.2794218,114.1849865
Fuk Kwan Avenue,"Fuk Kwan Ave, Tai Hang, Hong Kong",22.276259,114.1938399
Fuk Lee Street,"Fuk Lee St, Tai Kok Tsui, Hong Kong",22.3241186,114.1602954
Fuk Lo Tsun Road,"Fuk Lo Tsun Rd, Hong Kong",22.3296863,114.1875927
Fuk Ning Road,"Fuk Ning Rd, Kwun Tong, Hong Kong",22.312205,114.2293975
Fuk On Lane,"Fuk Sau Ln, Sai Ying Pun, Hong Kong",22.2858506,114.140346
Fuk Sau Lane,"Fuk Sau Ln, Sai Ying Pun, Hong Kong",22.2858506,114.140346
Fuk To Street,"Fuk Wa St, Hong Kong",22.3306145,114.1635165
Fuk Tong Road,"Fuk Tong Rd, Kwun Tong, Hong Kong",22.3117249,114.2284349
Fuk Tsun Street,"Fuk Tsun St, Tai Kok Tsui, Hong Kong",22.321601,114.163846
Fuk Wa Street,"Fuk Wa St, Hong Kong",22.3306145,114.1635165
Fuk Wing Street,"Fuk Wing St, Hong Kong",22.3344434,114.1595357
Fuk Yuen Street,"Fuk Yuen St, North Point, Hong Kong",22.2890139,114.1937885
Fukien Street,Hong Kong,22.396428,114.109497
Fung Fai Terrace,"Fung Fai Terrace, Happy Valley, Hong Kong",22.2682212,114.1833507
Fung Ha Road,"Fung Ha Rd, Tai Tam Gap, Hong Kong",22.2605144,114.2313831
Fung Lai Road,"Fung Lai Rd, Hong Kong",22.3452371,114.2024571
Fung Mat Road,"Fung Mat Rd, Sai Wan, Hong Kong",22.2885785,114.1375624
Fung Mei Path,"Fung Mei Path, Diamond Hill, Hong Kong",22.3430739,114.2023834
Fung Mo Street,"Fung Mo St, Hong Kong",22.339618,114.189317
Fung Ping Lane,"Fung Ping Ln, Hong Kong",22.3424125,114.1668503
Fung Shing Street,"Fung Shing St, Hong Kong",22.3390588,114.213605
Fung Tak Road,"Fung Tak Rd, Hong Kong",22.3427258,114.2013085
Fung Tin Street,"Fung Tin St, Aberdeen, Hong Kong",22.2486883,114.1533575
Fung Un Street,"Fung Un St, Causeway Bay, Hong Kong",22.2790729,114.1854893
Fung Wah Street,"Fung Wah St, Tsz Wan Shan, Hong Kong",22.3510883,114.2015647
Fung Wong Terrace,"Fung Wong Terrace, Wan Chai, Hong Kong",22.2741288,114.1725697
Fung Yi Street,"Fung Yi St, Ma Tau Kok, Hong Kong",22.3217934,114.1913862
Fung Yip Street,"Fung Yip St, Chai Wan, Hong Kong",22.267522,114.245119
Gage Street,"Gage St, Central, Hong Kong",22.2831966,114.1534696
Garden Road,"Garden Rd, Hong Kong",22.2776516,114.1585776
Garden Terrace,"8A Old Peak Rd, Mid-level, Hong Kong",22.275945,114.154339
Gascoigne Road,"Gascoigne Rd, Yau Ma Tei, Hong Kong",22.3068286,114.1748655
George's Lane,"George's Ln, Central, Hong Kong",22.282449,114.1519294
Gillies Avenue North,"Gillies Ave N, Hung Hom, Hong Kong",22.3115221,114.1870166
Gillies Avenue South,"Gillies Ave S, Hung Hom, Hong Kong",22.3076461,114.1848173
Gilman Street,"Gilman St, Central, Hong Kong",22.2858788,114.1550952
Gilman's Bazaar,"Gilman's Bazaar, Central, Hong Kong",22.2849293,114.1542307
Glass Street,"Glass St, Causeway Bay, Hong Kong",22.2864128,114.1905965
Glee Path,"Glee Path, Lai Chi Kok, Hong Kong",22.3364946,114.1394218
Glenealy,"Glenealy, Hong Kong",22.2784321,114.1541979
Gloucester Road,"Gloucester Rd, Hong Kong",22.2799613,114.1773361
Goldsmith Road,"Goldsmith Rd, Jardine's Lookout, Hong Kong",22.2683402,114.1915268
Good Shepherd Street,"Good Shepherd St, No. 12 Hill, Hong Kong",22.3160196,114.1801924
Gordon Road,"Gordon Rd, Causeway Bay, Hong Kong",22.2857277,114.191133
Gough Hill Path,"Gough Hill Path, The Peak, Hong Kong",22.2654782,114.1526292
Gough Hill Road,"Gough Hill Rd, The Peak, Hong Kong",22.2663953,114.1556264
Gough Street,"Gough St, Hong Kong",22.2841845,114.1524715
Governor's Walk,"150 Stanley Ave, Ottawa, ON K1M 2J7, Canada",45.44017150000001,-75.68764050000001
Graham Street,"Graham St, Central, Hong Kong",22.283043,114.1535824
Grampian Road,"Grampian Rd, Kowloon Tsai, Hong Kong",22.329014,114.1865434
Grandeur Road,"Grandeur Rd, Yau Yat Chuen, Hong Kong",22.3336451,114.1738674
Granville Circuit,"Granville Circuit, Tsim Sha Tsui, Hong Kong",22.2998534,114.1753789
Granville Road,"Granville Rd, Hong Kong",22.3003108,114.1753331
Granville Square,"Grandville Square, Tsim Sha Tsui East, Hong Kong",22.2998647,114.1770806
Great George Street,"Great George St, Causeway Bay, Hong Kong",22.2805629,114.1859902
Green Lane,"Green Ln, Happy Valley, Hong Kong",22.2643626,114.1882101
Greig Crescent,"Greig Cres, Hong Kong",22.2822809,114.2144984
Greig Road,"Greig Road, Hong Kong",22.2828104,114.2137633
Gresson Street,"Gresson St, Wan Chai, Hong Kong",22.2768057,114.1700789
Guildford Road,"Guildford Rd, The Peak, Hong Kong",22.266965,114.162215
Gullane Road,"Gullane Rd, Ho Man Tin, Hong Kong",22.3221622,114.1803898
Gutzlaff Street,"Gutzlaff St, Central, Hong Kong",22.2831607,114.1539593
Ha Heung Road,"Ha Heung Rd, To Kwa Wan, Hong Kong",22.3172642,114.1891535
Hai Tan Street,"Hai Tan St, Hong Kong",22.3280171,114.1591674
Haiphong Road,"Haiphong Rd, Tsim Sha Tsui, Hong Kong",22.2980174,114.1704703
Hak Po Street,"Hak Po St, Mong Kok, Hong Kong",22.318041,114.172604
Ham Yu Street,"Ham Yu St, Sai Ying Pun, Hong Kong",22.2881465,114.1434144
Hamilton Street,"Hamilton St, Mong Kok, Hong Kong",22.3144285,114.1697165
Hammer Hill Road,"Hammer Hill Rd, Hong Kong",22.3391432,114.2061512
Hampshire Road,"Hampshire Rd, Kowloon Tsai, Hong Kong",22.3319335,114.1802335
Hang Cheung Street,"Hang Cheung St, Cheung Sha Wan, Hong Kong",22.336361,114.153691
Hang On Street,"Hang On St, Hong Kong",22.3158295,114.2222522
Hang Wan Road,"Hang Wan Rd, Ma Tau Chung, Hong Kong",22.3252615,114.1895981
Hang Yip Street,"Hang Yip St, Hong Kong",22.31505,114.217143
Hankow Road,"Hankow Rd, Tsim Sha Tsui, Hong Kong",22.2964221,114.171143
Hanoi Road,"Hanoi Rd, Tsim Sha Tsui, Hong Kong",22.2977703,114.1739382
Happy View Terrace,"Happy View Terrace, Hong Kong",22.2745132,114.1853543
Harbour Drive,"Harbour Dr, Wan Chai, Hong Kong",22.2798024,114.1758218
Harbour Parade,"Harbour Parade, North Point, Hong Kong",22.2928009,114.2007138
Harbour Road,"Harbour Rd, Wan Chai, Hong Kong",22.2807029,114.1747549
Harbour View Street,"Harbour View St, Central, Hong Kong",22.2844394,114.1579859
Harcourt Road,"Harcourt Rd, Hong Kong",22.280406,114.164551
Harlech Road,"Harlech Rd, The Peak, Hong Kong",22.2716086,114.1439098
Harmony Road,"Harmony Rd, Siu Sai Wan, Hong Kong",22.2649593,114.2494121
Hart Avenue,"Hart Ave, Tsim Sha Tsui, Hong Kong",22.2977973,114.1745632
Hatton Road,"Hatton Rd, Hong Kong",22.2766445,114.1372545
Hau Cheung Street,"Hau Cheung St, Yau Ma Tei, Hong Kong",22.3114339,114.1660125
Hau Fook Street,"Hau Fook St, Tsim Sha Tsui, Hong Kong",22.2995362,114.1740479
Hau Fung Lane,"Hau Fung Ln, Wan Chai, Hong Kong",22.2751811,114.1704903
Hau Man Street,"Hau Man St, No. 12 Hill, Hong Kong",22.3120416,114.1801032
Hau Tak Lane,"Hau Tak Ln, Wan Chai, Hong Kong",22.2744447,114.1786277
Hau Wo Street,"Hau Wo St, Sai Wan, Hong Kong",22.2827992,114.1272796
Hau Wong Road,"Hau Wong Rd, Hong Kong",22.3290854,114.1887619
Hau Yuen Path,"Hau Yuen Path, Hong Kong",22.2837073,114.1981725
Haven Street,"Haven St, Hong Kong",22.2777441,114.1869287
Hawthorn Road,"Hawthorn Rd, Happy Valley, Hong Kong",22.2658136,114.1875959
Headland Road,"Headland Rd, Repulse Bay, Hong Kong",22.2262605,114.2002672
Healthy Street Central,"Healthy Street Central, Tsat Tsz Mui, Hong Kong",22.2919835,114.2058153
Healthy Street East,"Healthy St E, Tsat Tsz Mui, Hong Kong",22.2918665,114.207186
Healthy Street West,"Healthy St W, Tsat Tsz Mui, Hong Kong",22.2914379,114.2046042
Heard Street,"Heard St, Wan Chai, Hong Kong",22.2774029,114.177281
Hee Wong Terrace,"Hee Wong Terrace, Sai Wan, Hong Kong",22.2829846,114.1310574
Hei Tin Street,Hong Kong,22.396428,114.109497
Hei Wo Street,"Hei Wo St, North Point, Hong Kong",22.2904813,114.1956522
Henderson Road,"Henderson Rd, Jardine's Lookout, Hong Kong",22.2682904,114.1932886
Heng Lam Street,"Heng Lam St, Lo Fu Ngam, Hong Kong",22.3360995,114.1889355
Hennessy Road,"Hennessy Rd, Hong Kong",22.2779487,114.1757825
Hereford Road,"Hereford Rd, Kowloon Tsai, Hong Kong",22.3339836,114.1811163
Heung Hing Lane,"Heung Hing Ln, Sheung Wan, Hong Kong",22.2872485,114.1480025
Heung Yip Road,"Heung Yip Rd, Hong Kong",22.2479014,114.1664195
Hi Lung Lane,"Hi Lung Ln, Yau Ma Tei, Hong Kong",22.3112499,114.169954
High Street,"High St, Sai Wan, Hong Kong",22.285151,114.142692
Hill Road,"Hill Rd, Shek Tong Tsui, Hong Kong",22.2854146,114.1357512
Hill Side Terrace,"Hong Kong, Wan Chai, Hillside Terrace",22.2752463,114.1696898
Hillier Street,"Hillier St, Hong Kong",22.2856887,114.1517226
Hillwood Road,"Hillwood Rd, Tsim Sha Tsui, Hong Kong",22.3027454,114.173316
Hing Fat Street,"Hing Fat St, Causeway Bay, Hong Kong",22.2851561,114.1908467
Hing Hon Road,"Hing Hon Rd, Hong Kong",22.2846106,114.1396248
Hing Lung Lane East,"Hing Lung Ln E, Shek Tong Tsui, Hong Kong",22.2863631,114.1373408
Hing Lung Lane West,"Hing Lung Ln W, Shek Tong Tsui, Hong Kong",22.2867767,114.1370255
Hing Lung Street,"Hing Lung St, Central, Hong Kong",22.2848777,114.155135
Hing Man Street,"Hing Man St, Hong Kong",22.2812455,114.223899
Hing Tin Street,"Hing Tin St, Lam Tin, Hong Kong",22.3110304,114.2373654
Hing Wah Street,"Hing Wah St, Cheung Sha Wan, Hong Kong",22.33645,114.1527065
Hing Wah Street West,"Hing Wah St W, Hong Kong",22.3298231,114.1447274
Hing Wan Street,"Hing Wan St, Wan Chai, Hong Kong",22.2737246,114.174246
Hing Wo Street,"Hing Wo St, Tin Wan, Hong Kong",22.250063,114.14834
Hing Yan Street,"Hing Yan St, Ma Tau Kok, Hong Kong",22.3194972,114.1945542
Hing Yin Street,"Hing Yin St, Ma Tau Kok, Hong Kong",22.319601,114.1943229
Hing Yip Street,"Hing Yip St, Kwun Tong, Hong Kong",22.3092684,114.2251696
Hip Wo Lane,"Hip Wo Ln, Happy Valley, Hong Kong",22.2681528,114.1871656
Hip Wo Street,"Hip Wo St, Hong Kong",22.3180946,114.227041
Hiu Kwong Street,"Hiu Kwong St, Hong Kong",22.3177112,114.2312599
Hiu Ming Street,"Hiu Ming St, Hong Kong",22.3159758,114.2309507
Hiu Tsui Street,"Hiu Tsui St, Siu Sai Wan, Hong Kong",22.2622507,114.2476266
Hiu Yuk Path,"Hiu Yuk Path, Sau Mau Ping, Hong Kong",22.3144388,114.2330132
Ho King Street,"Ho King St, Peng Chau, Hong Kong",22.2866377,114.039038
Ho Kwok Lane,"Kwok Hing Ln, Sai Wan, Hong Kong",22.2856892,114.1433766
Ho Man Tin Hill Road,"Ho Man Tin Hill Rd, Ho Man Tin, Hong Kong",22.3149009,114.1766895
Ho Man Tin Street,"Ho Man Tin St, Ho Man Tin, Hong Kong",22.3159534,114.175263
Ho Tung Road,"Ho Tung Rd, Kowloon Tsai, Hong Kong",22.3286675,114.1797927
Hoi An Street,"Hoi An St, Shau Kei Wan, Hong Kong",22.2803049,114.2238426
Hoi Bun Road,"Hoi Bun Rd, Hong Kong",22.3134713,114.2164684
Hoi Chak Street,"Hoi Chak St, Quarry Bay, Hong Kong",22.2901336,114.210301
Hoi Ching Street,"Hoi Ching St, Shau Kei Wan, Hong Kong",22.279881,114.2231278
Hoi Chiu Street,"Shop G6, G/F., Shing Yip Industrial Building, No.19-21, Shing Yip Street, Kwun Tong, Kowloon., Kwun Tong, Hong Kong",22.3099023,114.2268491
Hoi Fai Road,"Hoi Fai Rd, Hong Kong",22.318219,114.1568246
Hoi Fan Road,"Hoi Fan Rd, Tai Kok Tsui, Hong Kong",22.3203074,114.1569051
Hoi Foo Street,"Hoi Foo St, Shau Kei Wan, Hong Kong",22.2800809,114.2246085
Hoi Fung Path,"Hoi Fung Path, Stanley, Hong Kong",22.2188282,114.2139045
Hoi Hong Street,"Hoi Hong St, Quarry Bay, Hong Kong",22.2880778,114.2105525
Hoi Keung Street,"Hong Keung St, San Po Kong, Hong Kong",22.3347455,114.1968996
Hoi King Street,"Hoi King St, Tai Kok Tsui, Hong Kong",22.3186361,114.1612428
Hoi Kwong Street,"Hoi Kwong St, Quarry Bay, Hong Kong",22.2881224,114.2108479
Hoi Lai Street,"Hoi Lai St, Cheung Sha Wan, Hong Kong",22.331083,114.1468879
Hoi Lee Street,"Hoi Lee St, Shau Kei Wan, Hong Kong",22.2806059,114.2233043
Hoi Ning Street,"Hoi Ning St, Shau Kei Wan, Hong Kong",22.2810507,114.2229737
Hoi Ping Road,"Hoi Ping Rd, Causeway Bay, Hong Kong",22.2775364,114.1851553
Hoi Po Road,"Hoi Po Rd, Hong Kong",22.3104763,114.1604996
Hoi Tai Street,"Hoi Tai St, Quarry Bay, Hong Kong",22.2884424,114.2116345
Hoi Ting Road,"Hoi Ting Rd, Mong Kok, Hong Kong",22.3148023,114.162658
Hoi Wan Street,"Hoi Wan St, Quarry Bay, Hong Kong",22.2880982,114.2116185
Hoi Wang Road,"Hoi Wang Rd, Hong Kong",22.3125627,114.1646241
Hoi Yu Street,"Hoi Yu St, Hong Kong",22.2913194,114.2116054
Hoi Yuen Road,"Hoi Yuen Rd, Kwun Tong, Hong Kong",22.3104225,114.2246277
Hok Cheung Street,"Hok Cheung St, Hung Hom, Hong Kong",22.309845,114.1912922
Hok Ling Street,"Hok Ling St, Ma Tau Kok, Hong Kong",22.3208844,114.1934957
Hok Sz Terrace,"26/F, 41 Heung Yip Rd, Hong Kong",22.2477839,114.163003
Hok Yu Lane,"Hok Yu Ln, Ho Man Tin, Hong Kong",22.3200849,114.177821
Hok Yuen Lane,"Hok Yuen St, Hung Hom, Hong Kong",22.3106178,114.1874665
Hok Yuen Street,"Hok Yuen St, Hung Hom, Hong Kong",22.3106178,114.1874665
Hok Yuen Street East,"Hok Yuen St E, Hok Yuen, Hong Kong",22.3106201,114.190281
Holland Street,"Holland St, Sai Wan, Hong Kong",22.2844574,114.1308579
Holly Road,"Holly Rd, Happy Valley, Hong Kong",22.2658673,114.1881995
Hollywood Road,"Hollywood Rd, Hong Kong",22.2838811,114.1512361
Holy Cross Path,"Holy Cross Path, Sai Wan Ho, Hong Kong",22.2815278,114.2224529
Homestead Road,"Homestead Rd, The Peak, Hong Kong",22.2655054,114.1503629
Hong Cheung Street,"Hong Cheung St, Sai Wan Ho, Hong Kong",22.283496,114.222074
Hong Chong Road,"Hong Chong Rd, Hong Kong",22.3042157,114.1809744
Hong Keung Street,"Hong Keung St, San Po Kong, Hong Kong",22.3347455,114.1968996
Hong Lee Road,"Hong Lee Rd, Ngau Tau Kok, Hong Kong",22.3184465,114.2206544
Hong Lok Street,"Hong Lok St, Mong Kok, Hong Kong",22.3199741,114.1682204
Hong Man Street,"Hong Man St, Chai Wan, Hong Kong",22.265922,114.2346742
Hong Ning Road,"Hong Ning Rd, Hong Kong",22.3185492,114.2229391
Hong On Street,"Hong On St, Kornhill, Hong Kong",22.2843284,114.218079
Hong Pak Path,"Hong Pak Path, Hong Kong",22.2809195,114.2134122
Hong Ping Street,"Hong Ping St, Chai Wan, Hong Kong",22.2653663,114.2450409
Hong Shing Street,"Hong Shing St, Kornhill, Hong Kong",22.2804846,114.2151705
Hong Tai Path,"Hong Tai Path, Hung Hom, Hong Kong",22.3024478,114.1788633
Hong Tak Road,"Hong Tak Rd, Hong Kong",22.3185167,114.2142576
Hong Tat Path,"Hong Tat Path, Tsim Sha Tsui East, Hong Kong",22.302049,114.178994
Hong Wan Path,"Wan King Path, Sai Kung, Hong Kong",22.3809579,114.271999
Hong Wing Path,"Hong Wing Path, Hong Kong",22.3020682,114.1795954
Hong Yue Street,"Hong Yue St, Kornhill, Hong Kong",22.2841045,114.2185725
Honiton Road,"Honiton Rd, Hong Kong",22.2837063,114.1409861
Hop Kwan Street,"Hop Kwan St, Tai Kok Tsui, Hong Kong",22.3228804,114.1606564
Hop Yat Road,"Hop Yat Rd, Hong Kong",22.3204331,114.1866759
Horizon Drive,"Horizon Dr, Chung Hom Kok, Hong Kong",22.2198269,114.2029495
Hornsey Road,"Hornsey Rd, Mid-level, Hong Kong",22.2769778,114.1519756
Horse Shoe Lane,"Horse Shoe Ln, Ngau Tau Kok, Hong Kong",22.3146445,114.2218415
Hospital Path,"1 Nam Fung Path, Aberdeen, Hong Kong",22.2517115,114.1763062
Hospital Road,"Hospital Rd, Hong Kong",22.2854183,114.1460063
Houston Street,"Houston St, Causeway Bay, Hong Kong",22.2820631,114.1852959
How Ming Lane,"How Ming Ln, Kwun Tong, Hong Kong",22.3138582,114.2209734
How Ming Street,"How Ming St, Kwun Tong, Hong Kong",22.3129261,114.2219531
Humbert Street,"Humbert St, Lai Chi Kok, Hong Kong",22.3393295,114.139695
Humphreys Avenue,"Humphreys Ave, Tsim Sha Tsui, Hong Kong",22.2982927,114.1729574
Hung Fook Street,"Hung Fook St, To Kwa Wan, Hong Kong",22.3141247,114.1888333
Hung Hing Road,"Hung Hing Rd, Hong Kong",22.2822827,114.1802044
Hung Hom Road,"Hung Hom Rd, Hung Hom, Hong Kong",22.3069447,114.1896679
Hung Hom South Road,"Hung Hom S Rd, Hung Hom, Hong Kong",22.3048634,114.1857748
Hung Hom Wan Street,"Hung Hom Wan St, Hung Hom, Hong Kong",22.3053088,114.1852965
Hung Kwong Street,"Hung Kwong St, To Kwa Wan, Hong Kong",22.3193269,114.1881939
Hung Lai Road,"Hung Lai Rd, Hung Hom, Hong Kong",22.3040458,114.1847505
Hung Ling Street,"Hung Ling St, Hung Hom, Hong Kong",22.3052278,114.1838042
Hung Lok Road,"Hung Lok Rd, Hung Hom, Hong Kong",22.3025643,114.1854925
Hung Luen Road,"Hung Luen Rd, Hung Hom, Hong Kong",22.301149,114.187037
Hung Mui Avenue,"Hung Mui Ave, Ngau Chi Wan, Hong Kong",22.3369105,114.2051003
Hung Shing Street,"Hung Shing St, Ap Lei Chau, Hong Kong",22.2445162,114.1558816
Hung To Road,"Hung To Rd, Kwun Tong, Hong Kong",22.3111991,114.2216324
Hung Wan Street,"Hung Wan St, Ma Tau Kok, Hong Kong",22.3212853,114.1925642
Hung Yip Street,Hong Kong,22.31442,114.216938
Hysan Avenue,"Hysan Ave, Causeway Bay, Hong Kong",22.2781016,114.1846312
Ice House Street,"Ice House St, Central, Hong Kong",22.2804216,114.1581281
Ichang Street,"Ichang St, Tsim Sha Tsui, Hong Kong",22.2970056,114.1708305
Illumination Terrace,"Illumination Terrace, Tai Hang, Hong Kong",22.2772602,114.1936565
In Ku Lane,"In Ku Ln, Sheung Wan, Hong Kong",22.2869105,114.1461073
Information Crescent,"Information Cres, Telegraph Bay, Hong Kong",22.2610278,114.1310155
Inverness Road,"Inverness Rd, Kowloon Tsai, Hong Kong",22.331833,114.185541
Irving Street,"Irving St, Causeway Bay, Hong Kong",22.2789005,114.1868652
Island Eastern Corridor,"Island Eastern Corridor, Hong Kong",22.284183,114.221675
Island Road,"Island Rd, Hong Kong",22.2412292,114.1871433
Ivy Street,"Ivy St, Tai Kok Tsui, Hong Kong",22.3213754,114.1623814
Jackson Road,"Jackson Rd, Central, Hong Kong",22.2812719,114.1607257
Jaffe Road,"Jaffe Rd, Hong Kong",22.2791643,114.1771311
Jardine's Bazaar,"Jardine's Bazaar, Causeway Bay, Hong Kong",22.2795527,114.1852116
Jardine's Crescent,"Jardine's Cres, Causeway Bay, Hong Kong",22.2792413,114.1848778
Jat's Incline,"Jat's Incline, Hong Kong",22.3448468,114.2160705
Java Road,"Java Rd, Hong Kong",22.2927705,114.204915
Jervois Street,"Jervois St, Sheung Wan, Hong Kong",22.2850135,114.1511945
Johnston Road,"Johnston Rd, Wan Chai, Hong Kong",22.2766195,114.1732624
Jones Street,"Jones St, Hong Kong",22.2784562,114.1912099
Jordan Path,"Jordan Path, Hong Kong",22.3049279,114.174619
Jordan Road,"Jordan Rd, Yau Ma Tei, Hong Kong",22.3059944,114.1663222
Jordan Valley North Road,"Jordan Valley N Rd, Ngau Tau Kok, Hong Kong",22.3236591,114.2170307
Jordan Valley South Road,"Jordan Valley Park, 71 New Clear Water Bay Rd, Cha Liu Au, Hong Kong",22.3305359,114.2213851
Jubilee Street,"Jubilee St, Central, Hong Kong",22.2844315,114.1555717
Julia Avenue,"Julia Ave, Ho Man Tin, Hong Kong",22.3198648,114.1753756
Junction Road,"Junction Rd, Hong Kong",22.3331228,114.1873368
Jupiter Street,"Jupiter St, Causeway Bay, Hong Kong",22.2862972,114.1922671
Justice Drive,"Justice Dr, Central, Hong Kong",22.2767585,114.1659118
Ka Lok Street,"Ka Lok St, Kwun Tong, Hong Kong",22.3164937,114.2255201
Ka Ning Path,"Ka Ning Path, Hong Kong",22.2774549,114.1893432
Ka On Street,"Ka On St, Shek Tong Tsui, Hong Kong",22.2875133,114.1373707
Ka Shin Street,"Ka Shin St, Tai Kok Tsui, Hong Kong",22.3199873,114.1614219
Ka Wah Terrace,"Wah Lam Path, Waterfall Bay, Hong Kong",22.2523651,114.138873
Ka Wai Man Road,"Ka Wai Man Rd, Kennedy Town, Hong Kong",22.2816667,114.1242548
Ka Wing Street,"Ka Wing St, Yau Tong, Hong Kong",22.2942809,114.2385955
Ka Wo Street,"Ka Wo St, Tin Wan, Hong Kong",22.2497716,114.1487302
Ka Yip Street,"Ka Yip St, Chai Wan, Hong Kong",22.269079,114.245436
Kadoorie Avenue,"Kadoorie Ave, Hong Kong",22.3224886,114.1755484
Kai Cheung Road,"Kai Cheung Rd, Hong Kong",22.3255199,114.2084887
Kai Chiu Road,"Kai Chiu Rd, Causeway Bay, Hong Kong",22.2793921,114.1838825
Kai Fuk Road,"Kai Fuk Rd, Hong Kong",22.3186736,114.2082952
Kai Hing Road,"Kai Hing Rd, Hong Kong",22.3155858,114.2122693
Kai Lai Road,"Kai Lai Rd, Kowloon Bay, Hong Kong",22.3275304,114.2071594
Kai Lim Road,"Kai Lim Rd, Hong Kong",22.3120354,114.2303404
Kai Lok Street,"Kai Lok St, Kowloon Bay, Hong Kong",22.3263799,114.2100974
Kai Ming Street,"Kai Ming St, To Kwa Wan, Hong Kong",22.3137142,114.1885625
Kai Shing Street,"Kai Shing St, Hong Kong",22.3263382,114.2046182
Kai Shun Road,"Kai Shun Rd, Kowloon Bay, Hong Kong",22.326,114.205901
Kai Tai Lane,"Kai Tai Ln, Kowloon Bay, Hong Kong",22.3271046,114.2121794
Kai Tak Road,"Kai Tak Rd, Kowloon City, Hong Kong",22.3294665,114.1921488
Kai Tin Road,"Kai Tin Rd, Lam Tin, Hong Kong",22.3084227,114.234539
Kai Wah Street,"Kai Wah St, Kowloon Bay, Hong Kong",22.3266637,114.2051758
Kai Yan Street,"Kai Yan St, Kowloon Bay, Hong Kong",22.3283065,114.206813
Kai Yip Road,"Kai Yip Rd, Kowloon Bay, Hong Kong",22.329545,114.2099395
Kai Yuen Street,"Kai Yuen St, Hong Kong",22.2900579,114.2033052
Kai Yuen Terrace,"Kai Yuen Terrace, Hong Kong",22.2908882,114.2037846
Kam Chi Path,"榮池徑, Ngau Chi Wan, Hong Kong",22.335143,114.208548
Kam Chuk Lane,"Kam Chuk Ln, Hong Kong",22.343412,114.187816
Kam Fong Street,"Kam Fong St, Mong Kok, Hong Kong",22.3156596,114.1673376
Kam Fung Street,"Fung Kam St, Yuen Long, Hong Kong",22.4422311,114.0333987
Kam Hong Street,"Kam Hong St, North Point, Hong Kong",22.2919267,114.2015829
Kam Lam Street,"Kam Lam St, Mong Kok, Hong Kong",22.3165592,114.167135
Kam Ping Street,"Kam Ping St, North Point, Hong Kong",22.2902838,114.2000676
Kam Shing Road,"Kam Shing Rd, Hong Kong",22.3393384,114.1805476
Kam Wa Street,"Kam Wa St, Shau Kei Wan, Hong Kong",22.2779318,114.2295647
Kam Wing Street,"Kam Wing St, San Po Kong, Hong Kong",22.3360025,114.1955045
Kam Yuen Lane,"Kam Yuen Ln, Chai Wan, Hong Kong",22.2646069,114.2405088
Kansu Street,"Kansu St, Yau Ma Tei, Hong Kong",22.3087783,114.169631
Kat On Street,"Kat On St, Wan Chai, Hong Kong",22.2734538,114.1741524
Kau Pui Lung Road,"Kau Pui Lung Rd, Hong Kong",22.3176452,114.1864293
Kau U Fong,"Kau U Fong, Central, Hong Kong",22.2844741,114.1529313
Kau U Fong North,"Kau U Fong, Central, Hong Kong",22.2844741,114.1529313
Kau U Fong West,"Kau U Fong, Central, Hong Kong",22.2844741,114.1529313
Kei Yip Lane,"Kei Yip Ln, Kwun Tong, Hong Kong",22.3087961,114.2213947
Kei Yip Street,"Kei Yip St, Kwun Tong, Hong Kong",22.3091631,114.2210958
Kellett Island,"Kellet Island, Hong Kong",22.2826416,114.181835
Keng Shan Lane,"Keng Shan Ln, Shau Kei Wan, Hong Kong",22.2792427,114.2299347
Kennedy Road,"Kennedy Rd, Hong Kong",22.2750017,114.165993
Kennedy Street,"Kennedy St, Wan Chai, Hong Kong",22.2736213,114.1745197
Kennedy Town New Praya,"New Praya Kennedy Town, Sai Wan, Hong Kong",22.2837367,114.1266007
Kennedy Town Praya,"New Praya Kennedy Town, Sai Wan, Hong Kong",22.2837367,114.1266007
Kent Road,"Kent Rd, Hong Kong",22.3385983,114.1763974
Keswick Street,"Keswick St, Causeway Bay, Hong Kong",22.2785208,114.186524
Ki Ling Lane,"Ki Ling Ln, Sai Wan, Hong Kong",22.2874509,114.1414359
Ki Lung Street,"Ki Lung St, Hong Kong",22.3274784,114.1637671
Ki Lung Street,"Ki Lung St, Hong Kong",22.3274784,114.1637671
Kiang Hsi Street,"Kiang Hsi St, Lo Lung Hang, Hong Kong",22.3144101,114.1871074
Kiang Su Street,"Kiang Su St, To Kwa Wan, Hong Kong",22.3162653,114.1869658
Kim Shin Lane,"Kim Shin Ln, Cheung Sha Wan, Hong Kong",22.33928,114.1528165
Kimberley Road,"Kimberley Rd, Tsim Sha Tsui, Hong Kong",22.3008209,114.1740694
Kimberley Street,"Kimberley St, Tsim Sha Tsui, Hong Kong",22.3004783,114.1743063
Kin Hang Terrace,"Tai Hang Terrace, 5 Chun Fai Rd, Tai Hang, Hong Kong",22.2742507,114.1938637
Kin Sau Lane,"Kin Sau Ln, Central, Hong Kong",22.2837675,114.1533143
Kin Wah Street,"Kin Wah St, North Point, Hong Kong",22.2892577,114.1969731
Kin Wan Street,"Kin Wan St, Hung Hom, Hong Kong",22.3005158,114.1867607
King Fuk Street,"King Fuk St, San Po Kong, Hong Kong",22.3345788,114.1980823
King Hong Street,"Hong King St, Yuen Long, Hong Kong",22.4435265,114.0275568
King Kwong Street,"King Kwong St, Happy Valley, Hong Kong",22.2689401,114.1847819
King Lam Street,"King Lam St, Cheung Sha Wan, Hong Kong",22.339214,114.147193
King Ming Road,"King Ming Rd, Causeway Bay, Hong Kong",22.2866172,114.190365
King Sing Street,"King Sing St, Wan Chai, Hong Kong",22.2740349,114.1740556
King Street,"King St, Tai Hang, Hong Kong",22.2787405,114.192035
King Tai Street,"King Tai St, Hong Kong",22.3340179,114.1976876
King Tak Street,"King Tak St, Quarry Hill, Hong Kong",22.3199097,114.1799782
King Tung Street,"King Tung St, Hammer Hill, Hong Kong",22.3407242,114.2100661
King Wah Road,"King Wah Rd, Hong Kong",22.2887004,114.1918643
King Wan Street,"Wan King St, To Kwa Wan, Hong Kong",22.3127743,114.1890632
King Yip Lane,"King Yip St, Kwun Tong, Hong Kong",22.3081327,114.2257233
King Yip Street,"King Yip St, Kwun Tong, Hong Kong",22.3081327,114.2257233
King's Park Hill Road,"King's Park Hill Rd, Yau Ma Tei, Hong Kong",22.3123231,114.1747534
King's Park Rise,"King's Park Rise, Yau Ma Tei, Hong Kong",22.3112361,114.1746537
King's Road,"King's Rd, Hong Kong",22.2890111,114.209664
King's Terrace,"2-3 Tak Hing Street, Hong Kong",22.304247,114.172371
Kingston Street,"Kingston St, Causeway Bay, Hong Kong",22.281588,114.185488
Kiu Kiang Street,"Kiu Kiang St, Hong Kong",22.3324959,114.1601252
Kiu Yam Street,"Kiu Yam St, Lei Cheng Uk, Hong Kong",22.3343607,114.1624192
Knight Street,"Knight St, Hong Kong",22.326178,114.176287
Knutsford Terrace,"Knutsford Terrace, Tsim Sha Tsui, Hong Kong",22.3011967,114.1740122
Ko Chiu Path,"Ko Chiu Rd, Hong Kong",22.2978265,114.2405706
Ko Chiu Road,"Ko Chiu Rd, Hong Kong",22.2978265,114.2405706
Ko Fai Road,"Ko Fai Rd, Yau Tong, Hong Kong",22.2959628,114.2358904
Ko Long Road,Hong Kong,22.396428,114.109497
Ko On Lane,"Ko On Ln, Yau Tong, Hong Kong",22.2958692,114.2374349
Ko Shan Road,"Ko Shan Rd, Hong Kong",22.3136485,114.1864309
Ko Shing Street,"Ko Shing St, Sheung Wan, Hong Kong",22.2870511,114.1462669
Kok Cheung Street,"Kok Cheung St, Tai Kok Tsui, Hong Kong",22.3213487,114.1603914
Kom Tsun Street,"Kom Tsun St, Cheung Sha Wan, Hong Kong",22.3372894,114.145045
Kom U Street,"Kom U St, Sheung Wan, Hong Kong",22.2865261,114.1462542
Kong Chung Lane,"Kong Chung Ln, Central, Hong Kong",22.286801,114.155622
Kong Sin Wan Road,"Kong Sin Wan Rd, Telegraph Bay, Hong Kong",22.2639927,114.1304919
Koon Wah Lane,"Koon Wah Ln, Tsz Wan Shan, Hong Kong",22.3469715,114.2020365
Kornhill Road,"Kornhill Rd, Kornhill, Hong Kong",22.2845396,114.2170679
Kotewall Road,"Kotewall Rd, Mid-level, Hong Kong",22.2812358,114.1410606
Kowloon City Road,"Kowloon City Rd, Hong Kong",22.319469,114.1895049
Kowloon Park Drive,"Kowloon Park Dr, Tsim Sha Tsui, Hong Kong",22.2974998,114.169893
Kowloon Road,"Kowloon Rd, Hong Kong",22.3342688,114.1626357
Kui In Fong,"Kui In Fong, Tai Ping Shan, Hong Kong",22.2839883,114.1487087
Kui Yan Lane,"Kui Yan Ln, Shek Tong Tsui, Hong Kong",22.2853471,114.1386926
Kun Yam Street,"Kun Yam St, Hung Hom, Hong Kong",22.3075945,114.185466
Kung Lok Road,"Kung Lok Rd, Hong Kong",22.317567,114.219892
Kut Shing Street,"Kut Shing St, Chai Wan, Hong Kong",22.264298,114.2356936
Kwai Chi Path,"榮池徑, Ngau Chi Wan, Hong Kong",22.335143,114.208548
Kwai Chung Road,"Kwai Chung Rd, Hong Kong",22.355697,114.1294651
Kwai Fong Street,"Kwai Fong St, Happy Valley, Hong Kong",22.2666767,114.1869947
Kwai Heung Street,"Kwai Heung St, Sai Wan, Hong Kong",22.2874115,114.1429871
Kwai Sing Lane,"Kwai Sing Ln, Happy Valley, Hong Kong",22.2674617,114.1867477
Kwai Tsui Street,"Kwai Tsui St, Chai Wan, Hong Kong",22.2625702,114.2388013
Kwai Wa Lane,"Kwai Wa Ln, Sheung Wan, Hong Kong",22.2849315,114.1508483
Kwan Yick Street,"Kwan Yick St, Sai Wan, Hong Kong",22.2819504,114.1266816
Kwei Chow Street,"Kwei Chow St, To Kwa Wan, Hong Kong",22.3169754,114.192222
Kweilin Street,"Kweilin St, Hong Kong",22.3301928,114.1611053
Kwok Hing Lane,"Kwok Hing Ln, Sai Wan, Hong Kong",22.2856892,114.1433766
Kwong Cheung Street,"Kwong Cheung St, Cheung Sha Wan, Hong Kong",22.3391632,114.1516283
Kwong Chiu Terrace,"6 Fortress Hill Rd, North Point, Hong Kong",22.288959,114.194831
Kwong Fung Lane,"Kwong Fung Ln, Shek Tong Tsui, Hong Kong",22.2862232,114.1383152
Kwong Fung Terrace,"163 Third Street, Sai Wan, Hong Kong, Hong Kong",22.286002,114.138801
Kwong Hon Terrace,"Kwong Hon Terrace Garden, 41-49 Aberdeen St, Central, Hong Kong",22.2824746,114.151792
Kwong Lee Road,"Kwong Lee Rd, Lei Cheng Uk, Hong Kong",22.3394847,114.1603407
Kwong Ming Street,"Kwong Ming St, Wan Chai, Hong Kong",22.2759662,114.1691158
Kwong Shing Street,"Kwong Shing St, Hong Kong",22.3405205,114.153651
Kwong Wa Street,"Kwong Wa St, Mong Kok, Hong Kong",22.3163772,114.1731668
Kwong Yik Lane,"Kwong Yik Ln, Wan Chai, Hong Kong",22.2764362,114.1690421
Kwong Yuen Street East,"68 Siu Lek Yuen Road, Sha Tin, Hong Kong",22.3806473,114.2139846
Kwong Yuen Street West,"68 Siu Lek Yuen Road, Sha Tin, Hong Kong",22.3806473,114.2139846
Kwong Yung Street,"Shun Yung St, Hung Hom, Hong Kong",22.311423,114.1849373
Kwun Chung Street,"Kwun Chung St, Kwun Chung, Hong Kong",22.3036262,114.168704
Kwun Hoi Path,"Kwun Hoi Path, Aberdeen, Hong Kong",22.2470668,114.1587355
Kwun Tong Road,"Kwun Tong Rd, Hong Kong",22.3233207,114.2143483
Kwun Yip Street,"Kwun Yip Street, Chai Wan, Hong Kong",22.2678721,114.2445952
La Salle Road,"La Salle Rd, Hong Kong",22.3299526,114.1819988
La Salle Road,"La Salle Rd, Hong Kong",22.3299526,114.1819988
Ladder Street,"Ladder St, Hong Kong",22.2840106,114.1499083
Ladder Street Terrace,"Ladder St, Hong Kong",22.2840106,114.1499083
Laguna Street,"Laguna St, Laguna City, Hong Kong",22.3064861,114.2268781
Laguna Verde Avenue,"Laguna Verde Ave, Hung Hom, Hong Kong",22.3079371,114.192585
Lai Cheung Road,"Lai Cheung Rd, Hong Kong",22.3121117,114.1643682
Lai Chi Kok Road,"Lai Chi Kok Rd, Hong Kong",22.3313251,114.1569051
Lai Chi Kok Road,"Lai Chi Kok Rd, Hong Kong",22.3313251,114.1569051
Lai Fat Street,"Lai Fat St, Cheung Sha Wan, Hong Kong",22.332167,114.151385
Lai Hong Street,"Lai Hong St, Cheung Sha Wan, Hong Kong",22.3322587,114.1508002
Lai King Hill Road,"Lai King Hill Rd, Hong Kong",22.3437916,114.1306498
Lai On Lane,"Lai On Ln, Sai Wan, Hong Kong",22.2871154,114.1392403
Lai Po Road,"Lai Po Rd, Hong Kong",22.3319851,114.143718
Lai Tak Tsuen Road,"Lai Tak Tsuen Rd, Tai Hang, Hong Kong",22.2784253,114.19396
Lai Wa Street,"Lai Wa St, To Kwa Wan, Hong Kong",22.316352,114.1888729
Lai Wan Road,"Lai Wan Rd, Lai Chi Kok, Hong Kong",22.3389803,114.1383707
Lai Yin Lane,"Lai Yin Ln, Causeway Bay, Hong Kong",22.2802754,114.1925827
Lai Yin Street,"Lai Yin St, Hong Kong",22.2783252,114.1909644
Lai Yip Street,"Lai Yip St, Hong Kong",22.3143017,114.2175553
Lam Chak Street,"Lam Chak St, Hong Kong",22.3153892,114.2116102
Lam Chung Avenue,"Lam Chung Ave, Choi Hung Estate, Hong Kong",22.3348643,114.2059886
Lam Fook Street,"Lam Fook St, Kowloon Bay, Hong Kong",22.3225442,114.2102508
Lam Fung Street,"Lam Fung St, Kowloon Bay, Hong Kong",22.3203494,114.2087368
Lam Hing Street,"Lam Hing St, Kowloon Bay, Hong Kong",22.324393,114.207751
Lam Lee Street,"Lam Lee St, Kowloon Bay, Hong Kong",22.3239969,114.2101059
Lam Lok Street,"Lam Lok St, Kowloon Bay, Hong Kong",22.3224621,114.2074173
Lam On Fong,"Lam On Fong, Shau Kei Wan, Hong Kong",22.279379,114.2262738
Lam Wah Street,"Lam Wah St, Kowloon Bay, Hong Kong",22.3231573,114.2072768
Lambeth Walk,"Lambeth Walk, Central, Hong Kong",22.2804799,114.1626114
Lan Fong Road,"Lan Fong Rd, Causeway Bay, Hong Kong",22.2786813,114.1843804
Lan Kwai Fong,"Central, Hong Kong",22.2808373,114.1556712
Lancashire Road,"Lancashire Rd, Kowloon Tsai, Hong Kong",22.330296,114.1803245
Landale Street,"Landale St, Wan Chai, Hong Kong",22.277138,114.1693144
Lap Tak Lane,"Lap Tak Ln, Wan Chai, Hong Kong",22.2764873,114.1801934
Larch Street,"Larch St, Tai Kok Tsui, Hong Kong",22.322196,114.163988
Larkspur Street,"Larkspur St, So Uk, Hong Kong",22.3410533,114.1568051
Lau Li Street,"Lau Li St, Causeway Bay, Hong Kong",22.2841739,114.1920374
Lau Sin Street,"Lau Sin St, Causeway Bay, Hong Kong",22.2831421,114.1924848
Lee Chi Road,"Lee Chi Rd, Ap Lei Chau, Hong Kong",22.2429403,114.1537907
Lee Chung Street,"Lee Chung St, Chai Wan, Hong Kong",22.265672,114.2360575
Lee Garden Road,"Lee Garden Rd, Causeway Bay, Hong Kong",22.278824,114.1836765
Lee Hing Street,"Lee Hing St, Ap Lei Chau, Hong Kong",22.2387473,114.1533186
Lee King Street,"Lee King St, Ap Lei Chau, Hong Kong",22.2382679,114.153375
Lee Kung Street,"Lee Kung St, Hung Hom, Hong Kong",22.3093387,114.1867529
Lee Lok Street,"Lee Lok St, Ap Lei Chau, Hong Kong",22.2377151,114.153658
Lee Man Road,"Lee Man Rd, Ap Lei Chau, Hong Kong",22.2436794,114.1523586
Lee Nam Road,"Lee Nam Rd, Ap Lei Chau, Hong Kong",22.2394957,114.1507007
Lee On Lane,"Lee On Ln, Cha Liu Au, Hong Kong",22.331402,114.222303
Lee On Road,"Lee On Rd, Cha Liu Au, Hong Kong",22.3317139,114.2261116
Lee Tat Street,"Room 16-18, 22/F, New Tech Plaza, No. 34 Tai Yau Street, San Po Kong, Kowloon, Hong Kong., Hong Kong",22.336632,114.197186
Lee Tung Street,"Lee Tung St, Wan Chai, Hong Kong",22.2756637,114.1723759
Lee Wing Street,"Lee Wing St, Ap Lei Chau, Hong Kong",22.2392463,114.153063
Lee Yip Street,"Lee Yip St, Mong Kok, Hong Kong",22.3142651,114.1674227
Legislative Council Road,"Legislative Council Rd, Central, Hong Kong",22.2816609,114.1668495
Lei King Road,"Lei King Rd, Aldrich Bay, Hong Kong",22.2851218,114.2224073
Lei Tung Estate Road,"Lei Tung Estate Rd, Ap Lei Chau, Hong Kong",22.2419689,114.1561806
Lei Yue Mun Path,"Lei Yue Mun Path, Hong Kong",22.2923228,114.238589
Lei Yue Mun Praya Road,"Lei Yue Mun Praya Rd, Hong Kong",22.2920194,114.2389402
Lei Yue Mun Road,"Lei Yue Mun Rd, Hong Kong",22.3044966,114.2349295
Leighton Lane,"Leighton Ln, Hong Kong",22.2774424,114.1838691
Leighton Road,"Leighton Rd, Leighton Hill, Hong Kong",22.2776163,114.1841667
Leung Fai Terrace,"Leung Fai Terrace, Mid-level, Hong Kong",22.2806392,114.1522983
Leung I Fong,"Leung I Fong, Sai Wan, Hong Kong",22.2853983,114.1427309
Li Chit Street,"Li Chit St, Wan Chai, Hong Kong",22.276861,114.169549
Li Kwan Avenue,"Li Kwan Ave, Tai Hang, Hong Kong",22.2766522,114.1941174
Li Po Lung Path,"Li Po Lung Path, Sai Wan, Hong Kong",22.283419,114.131303
Li Po Lung Terrace,"Li Po Lung Path, Sai Wan, Hong Kong",22.283419,114.131303
Li Sing Street,"Li Sing St, Hong Kong",22.2872865,114.1452661
Li Tak Street,"Li Tak St, Tai Kok Tsui, Hong Kong",22.3208934,114.1611502
Li Yuen Street East,"Li Yuen St E, Central, Hong Kong",22.2828042,114.156412
Li Yuen Street West,"Li Yuen St W, Central, Hong Kong",22.2830943,114.1561809
Liberty Avenue,"Liberty Ave, Ho Man Tin, Hong Kong",22.3187536,114.1742368
Lilac Street,"Lilac St, So Uk, Hong Kong",22.340932,114.157986
Lily Street,"Lily St, Tin Hau, Hong Kong",22.279467,114.192644
Lime Street,"Lime St, Tai Kok Tsui, Hong Kong",22.322304,114.1640828
Lin Cheung Road,"Lin Cheung Rd, Hong Kong",22.3244457,114.1553033
Lin Cheung Road,"Lin Cheung Rd, Hong Kong",22.3244457,114.1553033
Lin Fa Kung Street East,"Lin Fa Kung St W, Tin Hau, Hong Kong",22.2798547,114.1925622
Lin Fa Kung Street West,"Lin Fa Kung St W, Tin Hau, Hong Kong",22.2798547,114.1925622
Lin Shing Road,"Lin Shing Rd, Hong Kong",22.2603917,114.2370135
Lin Tak Road,"Lin Tak Rd, Hong Kong",22.3120533,114.2380024
Lincoln Road,"Lincoln Rd, Kowloon Tong, Hong Kong",22.3276743,114.1772976
Link Road,"Link Rd, Hong Kong",22.2754829,114.1852773
Lion Rock Road,"Lion Rock Rd, Hong Kong",22.3290969,114.1881769
Lion Rock Tunnel Road,"Lion Rock Tunnel, Hong Kong",22.351337,114.1775944
Lloyd Path,"Lloyd Path, The Peak, Hong Kong",22.2703625,114.1605035
Lo Lung Hang Street,"Lo Lung Hang St, Hung Hom, Hong Kong",22.307712,114.183503
Lock Road,"Lock Rd, Tsim Sha Tsui, Hong Kong",22.297154,114.1715472
Lockhart Road,"Lockhart Rd, Hong Kong",22.2785972,114.1766163
Lok Hing Lane,"Lok Hing Ln, Central, Hong Kong",22.2820678,114.1550393
Lok Ku Road,"Lok Ku Rd, Hong Kong",22.2852075,114.1497002
Lok Kwan Street,"Lok Kwan St, Tai Kok Tsui, Hong Kong",22.3232081,114.1609847
Lok Man Road,"Lok Man Rd, Hong Kong",22.2687095,114.2349895
Lok Shan Road,"Lok Shan Rd, To Kwa Wan, Hong Kong",22.3169628,114.1890134
Lok Sin Road,"Lok Sin Rd, Hong Kong",22.332186,114.193299
Lok Yeung Street,"Lok Yeung St, Aberdeen, Hong Kong",22.2492265,114.1552242
Lomond Road,"Lomond Rd, Hong Kong",22.3259296,114.1854743
London Lane,"London Ln, Ap Lei Chau, Hong Kong",22.2438296,114.1545785
Long Yuet Street,"Long Yuet St, To Kwa Wan, Hong Kong",22.3171026,114.1928591
Lower Albert Road,"Lower Albert Rd, Central, Hong Kong",22.279383,114.1574475
Lower Kai Yuen Lane,"Kai Yuen St, Hong Kong",22.2900579,114.2033052
Lower Lascar Row,"Upper Lascar Row, Tai Ping Shan, Hong Kong",22.2849487,114.1495921
Luard Road,"Luard Rd, Wan Chai, Hong Kong",22.2775742,114.1716166
Luen On Street,"Luen On St, Ngau Tau Kok, Hong Kong",22.3155173,114.2214868
Luen Wan Street,"Luen Wan St, Mong Kok, Hong Kong",22.3214148,114.1722517
Lugard Road,"Lugard Rd, The Peak, Hong Kong",22.2756604,114.1417499
Luk Hop Street,"Luk Hop St, San Po Kong, Hong Kong",22.3368361,114.1999627
Luk Lau Avenue,"Luk Lau Ave, Ngau Chi Wan, Hong Kong",22.3356986,114.2053078
Luk Ming Street,"Luk Ming St, Ma Tau Kok, Hong Kong",22.3216969,114.1916197
Lun Cheung Street,"Lun Cheung St, Ma Tau Kok, Hong Kong",22.3215954,114.1918524
Lun Fat Street,"Lun Fat St, Wan Chai, Hong Kong",22.2764861,114.1705468
Lun Hing Street,"Lun Hing St, Happy Valley, Hong Kong",22.2677392,114.1871524
Lung Cheung Road,"Lung Cheung Rd, Hong Kong",22.3427847,114.1850824
Lung Chi Path,"Lung Chi Path, Ngau Chi Wan, Hong Kong",22.33571,114.208333
Lung Chu Street,"Lung Chu St, Hong Kong",22.3342248,114.1724932
Lung Fung Street,"Lung Fung St, Chuk Un, Hong Kong",22.3452389,114.1968475
Lung Kai Terrace,"Kai Yuen Terrace, Hong Kong",22.2908882,114.2037846
Lung King Street,"Lung King St, Wan Chai, Hong Kong",22.2810839,114.1691156
Lung Kong Road,"Lung Kong Rd, Hong Kong",22.328882,114.190397
Lung On Street,"Lung On St, Wan Chai, Hong Kong",22.2730967,114.1739583
Lung Ping Road,"Lung Ping Rd, Hong Kong",22.3419504,114.1678385
Lung Poon Street,"Lung Poon St, Hong Kong",22.3415091,114.2012206
Lung Shan Road,"Mid-level, Hong Kong",22.280148,114.139932
Lung Tak Street,"Lung Tak St, Tsuen Wan, Hong Kong",22.3646944,114.117127
Lung To Street,"Tang Lung St, Bowrington, Hong Kong",22.2791399,114.1820971
Lung Wah Street,"Lung Wah St, Sai Wan, Hong Kong",22.2799981,114.1283903
Lung Wo Road,"Lung Wo Rd, Central, Hong Kong",22.2826474,114.1640672
Lung Wui Road,"Lung Wui Rd, Central, Hong Kong",22.2809011,114.1676756
Lung Yan Street,"Lung Yan Rd, Hong Kong",22.3481299,114.1689473
Lung Yin Road,"Lyndhurst Terrace, Central, Hong Kong",22.2825136,114.1540429
Lyndhurst Terrace,"Lyttelton Rd, Mid-level, Hong Kong",22.2834713,114.1445549
Lyttelton Road,"Ma Chai Hang Rd, Hong Kong",22.3433756,114.189026
Ma Chai Hang Road,"Ma Hang Chung Rd, To Kwa Wan, Hong Kong",22.319469,114.1895049
Ma Hang Chung Road,"Ma Tau Chung Rd, Hong Kong",22.3244184,114.1887418
Ma Tau Chung Road,"Ma Tau Kok Rd, Hong Kong",22.3213873,114.1910477
Ma Tau Kok Road,"Ma Tau Wai Rd, Hong Kong",22.3145067,114.1873831
Ma Tau Wai Road,"Macdonnell Rd, Mid-level, Hong Kong",22.275285,114.158722
Macdonnell Road,"Magazine Gap Rd, Hong Kong",22.2727058,114.16199
Magazine Gap Road,"Magnolia Rd, Yau Yat Chuen, Hong Kong",22.3291212,114.1726689
Magnolia Road,"Maidstone Ln, To Kwa Wan, Hong Kong",22.3195108,114.1869571
Maidstone Lane,"Maidstone Rd, To Kwa Wan, Hong Kong",22.3175825,114.1869788
Maidstone Road,"Ap Lei Chau Main St, Ap Lei Chau, Hong Kong",22.24391,114.155237
"Main Street, Ap Lei Chau","Malacca St, Hung Hom, Hong Kong",22.3077966,114.1829787
Malacca Street,"Mallory St, Wan Chai, Hong Kong",22.277378,114.1767975
Mallory Street,"Man Cheong St, Yau Ma Tei, Hong Kong",22.3082479,114.1665327
Man Cheong Street,"Man Cheung St, Central, Hong Kong",22.2852988,114.1577829
Man Cheung Street,"Man Chiu St, Central, Hong Kong",22.287038,114.1556448
Man Chiu Street,"Man Fai St, Central, Hong Kong",22.2882206,114.1554307
Man Fai Street,"Man Fat St, Lei Cheng Uk, Hong Kong",22.3404768,114.1583715
Man Fat Street,"Man Fuk Rd, Ho Man Tin, Hong Kong",22.3195255,114.1779907
Man Fuk Road,"13/F,, Coda Plaza, 51 Garden Rd, Mid-level, Hong Kong",22.2763595,114.1561985
Man Fung Path,"Man Hing Ln, Central, Hong Kong",22.2833039,114.1527744
Man Hing Lane,"Man Hong St, Tsat Tsz Mui, Hong Kong",22.2928816,114.2050415
Man Hong Street,"Man Kat St, Hong Kong",22.286708,114.1555203
Man Kat Street,"Man Kwong St, Central, Hong Kong",22.2870697,114.1579436
Man Kwong Street,"Man Lok St, Hung Hom, Hong Kong",22.309805,114.1893079
Man Lok Street,"Man Ming Ln, Yau Ma Tei, Hong Kong",22.3117711,114.1700041
Man Ming Lane,"Man On St, Tai Kok Tsui, Hong Kong",22.3236742,114.1613929
Man On Street,"Man Po St, Central, Hong Kong",22.2866948,114.1571747
Man Po Street,"310 Gloucester Rd, Causeway Bay, Hong Kong",22.2811761,114.1864329
Man She Lane,"Man Sing St, Ferry Point, Hong Kong",22.3075612,114.1663454
Man Sing Street,"Siu Yip St, Kowloon Bay, Hong Kong",22.320345,114.213019
Man Siu Street,"Man Tai St, Hung Hom, Hong Kong",22.3065184,114.1884418
Man Tai Street,"Man Wa Ln, Sheung Wan, Hong Kong",22.2861912,114.1524609
Man Wa Lane,"Man Wai St, Yau Ma Tei, Hong Kong",22.307868,114.1664222
Man Wai Street,"Man Wan Rd, Ho Man Tin, Hong Kong",22.3189587,114.1773583
Man Wan Road,"Man Wui St, Yau Ma Tei, Hong Kong",22.3068962,114.1661478
Man Wui Street,"Man Yee Ln, Central, Hong Kong",22.2835895,114.1558115
Man Yee Lane,"Man Ying St, Yau Ma Tei, Hong Kong",22.307273,114.1662483
Man Ying Street,"Man Yiu St, Central, Hong Kong",22.285005,114.1599424
Man Yiu Street,"Man Yue St, Hung Hom, Hong Kong",22.3087988,114.1883513
Man Yue Street,"Man Yuen St, Yau Ma Tei, Hong Kong",22.3075612,114.1663454
Man Yuen Street,"Mansfield Rd, The Peak, Hong Kong",22.265659,114.1627925
Mansfield Road,"Mansion St, Tsat Tsz Mui, Hong Kong",22.2900859,114.208957
Mansion Street,"Maple St, Tai Kok Tsui, Hong Kong",22.3261225,114.1644384
Maple Street,"Maple St, Tai Kok Tsui, Hong Kong",22.3261225,114.1644384
Maple Street,"Marble Rd, Hong Kong",22.2920059,114.2013776
Marble Road,"Marconi Rd, Beacon Hill, Hong Kong",22.3414459,114.1818537
Marconi Road,"Marigold Rd, Yau Yat Chuen, Hong Kong",22.3284973,114.1733343
Marigold Road,"Tung Choi St, Mong Kok, Hong Kong",22.3216266,114.1700929
Market Street,"Marsh Rd, Hong Kong",22.2802391,114.1790862
Marsh Road,"Marsh St, Hung Hom, Hong Kong",22.307337,114.185876
Marsh Street,Hong Kong,22.396428,114.109497
Mason's Lane,"Matheson St, Causeway Bay, Hong Kong",22.277913,114.1826471
Matheson Street,"Mau Lam St, Yau Ma Tei, Hong Kong",22.307455,114.171888
Mau Lam Street,"May Rd, Mid-level, Hong Kong",22.273864,114.1555378
May Road,"McGregor St, Wan Chai, Hong Kong",22.2747617,114.1731782
Mcgregor Street,"Mee Lun Street, Central, Hong Kong",22.283823,114.1524527
Mee Lun Street,"Mei Ching Rd, Lai Chi Kok, Hong Kong",22.3320757,114.1372304
Mei Ching Road,"Mei King St, To Kwa Wan, Hong Kong",22.3170802,114.1911411
Mei King Street,"Mei Kwong St, To Kwa Wan, Hong Kong",22.3167939,114.191291
Mei Kwong Street,"Mei Lai Rd, Lai Chi Kok, Hong Kong",22.3390145,114.1404566
Mei Lai Road,"Mei On St, Tai Kok Tsui, Hong Kong",22.3228681,114.1614088
Mei On Street,"Mei Wa St, To Kwa Wan, Hong Kong",22.3165493,114.1890154
Mei Wa Street,"Mercer St, Sheung Wan, Hong Kong",22.2853943,114.1519277
Mercer Street,"Mercury St, Causeway Bay, Hong Kong",22.2858324,114.1922197
Mercury Street,"Merlin St, Hong Kong",22.2871528,114.192282
Merlin Street,"Metropolis Dr, Hung Hom, Hong Kong",22.3022782,114.1837987
Metropolis Drive,"Middle Gap Rd, The Peak, Hong Kong",22.2620813,114.1717495
Middle Gap Road,"Middle Rd, Tsim Sha Tsui, Hong Kong",22.2955269,114.1722591
Middle Road,"Min Fat St, Happy Valley, Hong Kong",22.2689469,114.1866385
Min Fat Street,"Min St, Yau Ma Tei, Hong Kong",22.3048307,114.1688828
Min Street,"Minden Ave, Tsim Sha Tsui, Hong Kong",22.2967839,114.1745609
Minden Avenue,"Minden Row, Tsim Sha Tsui, Hong Kong",22.2965406,114.1736984
Minden Row,"Chi Ming St, Sheung Shui, Hong Kong",22.5022143,114.1316714
Ming Chi Street,"Ming Fung St, Chuk Un, Hong Kong",22.3441859,114.1964823
Ming Fung Street,"Ming Lun St, Ma Tau Kok, Hong Kong",22.3198522,114.1936089
Ming Lun Street,"Ming On St, Hung Hom, Hong Kong",22.3064002,114.1857096
Ming On Street,"8363 Granville St, Vancouver, BC V6P 4Z8, Canada",49.2108334,-123.1407047
Ming Tak Street,"Ming Tsui St, Siu Sai Wan, Hong Kong",22.2620958,114.2489112
Ming Tsui Street,"Ming Un Ln, Shau Kei Wan, Hong Kong",22.2784309,114.2299086
Ming Un Lane,"Ming Yan Ln, Wan Chai, Hong Kong",22.2756903,114.1713631
Ming Yan Lane,"Hong Kong Parkview, 2nd floor88 Tai Tam Reservoir Rd, Hong Kong",22.2583874,114.1997851
Ming Yuen Terrace,"Ming Yuen Western St, North Point, Hong Kong",22.2898982,114.1989812
Ming Yuen Western Street,Hong Kong,22.396428,114.109497
Miu Kang Terrace,"Miu Tung St, Shau Kei Wan, Hong Kong",22.2801446,114.2306141
Miu Tung Street,"Model Ln, Tsat Tsz Mui, Hong Kong",22.2910792,114.2081987
Model Lane,"Mody Ln, Tsim Sha Tsui East, Hong Kong",22.2979795,114.1782753
Mody Lane,"Mody Rd, Hong Kong",22.2974391,114.1768211
Mody Road,"Mody Square, Tsim Sha Tsui East, Hong Kong",22.2985294,114.1770618
Mody Square,"Mok Cheong St, Hong Kong",22.3224107,114.1912105
Mok Cheong Street,"Mong Kok Rd, Mong Kok, Hong Kong",22.3207538,114.1685207
Mong Kok Road,"Mong Lung St, Hong Kong",22.2784706,114.229668
Mong Lung Street,"Monmouth Path, Wan Chai, Hong Kong",22.2770389,114.1677744
Monmouth Path,"Monmouth Terrace, Wan Chai, Hong Kong",22.2755898,114.1676353
Monmouth Terrace,"Moon St, Wan Chai, Hong Kong",22.2762745,114.1684619
Moon Street,"Moorsom Dr, Jardine's Lookout, Hong Kong",22.2701483,114.1946941
Moorsom Drive,"Moorsom Rd, Jardine's Lookout, Hong Kong",22.2708,114.1941857
Moorsom Road,"Moray Rd, Kowloon Tsai, Hong Kong",22.3310125,114.180179
Moray Road,"Moreton Terrace, Causeway Bay, Hong Kong",22.2795036,114.1890613
Moreton Terrace,"Morrison Hill Rd, Wan Chai, Hong Kong",22.2765809,114.1803348
Morrison Hill Road,"Morrison St, Hong Kong",22.2866225,114.1504402
Morrison Street,"Mosque Jct, Mid-level, Hong Kong",22.2796323,114.1515607
Mosque Junction,"Mosque St, Mid-level, Hong Kong",22.2797229,114.1520172
Mosque Street,"Mount Austin Rd, The Peak, Hong Kong",22.2742983,114.1463773
Mount Austin Road,"Mount Butler Dr, Jardine's Lookout, Hong Kong",22.2660116,114.1930556
Mount Butler Drive,"Mount Butler Rd, Hong Kong",22.269187,114.1960012
Mount Butler Road,"Mount Cameron Rd, The Peak, Hong Kong",22.2644279,114.16967
Mount Cameron Road,"Mount Davis Path, Mount Davis, Hong Kong",22.2756189,114.1224982
Mount Davis Path,"Mount Davis Rd, Hong Kong",22.274003,114.125888
Mount Davis Road,"Mount Kellett Rd, The Peak, Hong Kong",22.2624909,114.149641
Mount Kellett Road,"Mount Nicholson Rd, The Peak, Hong Kong",22.2656427,114.1782687
Mount Nicholson Road,"Mount Parker Rd, Hong Kong",22.2685204,114.2159966
Mount Parker Road,"Mount Sterling Mall, Lai Chi Kok, Hong Kong",22.338151,114.138636
Mount Sterling Mall,"Mui Fong St, Sai Ying Pun, Hong Kong",22.2872624,114.143336
Mui Fong Street,"Mui Hing St, Happy Valley, Hong Kong",22.2665589,114.187436
Mui Hing Street,"Muk Chui St, Kai Tak, Hong Kong",22.3312569,114.2035004
Muk Chui Street,"Muk Chun St, Kai Tak, Hong Kong",22.3338575,114.2032886
Muk Chun Street,"Muk Hung St, Kai Tak, Hong Kong",22.3321738,114.2038398
Muk Hung Street,"Muk Lun St, Chuk Un, Hong Kong",22.3409359,114.1972215
Muk Lun Street,"Muk Ning St, Kai Tak, Hong Kong",22.328815,114.2011171
Muk Ning Street,"On Muk St, Sha Tin, Hong Kong",22.3874492,114.2078141
Muk On Street,"Murray Rd, Central, Hong Kong",22.280711,114.1620686
Murray Road,"Mut Wah St, Kwun Tong, Hong Kong",22.3150906,114.224928
Mut Wah Street,"Nam Cheong St, Hong Kong",22.3319421,114.165717
Nam Cheong Street,"Nam Fung Path, Hong Kong",22.2513274,114.1762152
Nam Fung Path,"Nam Fung Rd, Hong Kong",22.253984,114.1780812
Nam Fung Road,"Nam Hong St, Hong Kong",22.2784312,114.2268643
Nam Hong Street,"Nam Kok Rd, Kowloon City, Hong Kong",22.328898,114.189851
Nam Kok Road,"55號 Ship St, Wan Chai, Hong Kong",22.275007,114.16967
Nam Koo Terrace,"Nam Long Shan Rd, Hong Kong",22.2408713,114.1677809
Nam Long Shan Road,"Nam Ning St, Aberdeen, Hong Kong",22.2489469,114.1538791
Nam Ning Street,"Nam On Ln, Hong Kong",22.2780721,114.227439
Nam On Lane,"Nam On St, Shau Kei Wan, Hong Kong",22.2788409,114.2269068
Nam On Street,"Nam Shan Chuen Rd, Hong Kong",22.3350022,114.1705823
Nam Shan Chuen Road,"Nam Tau St, Mong Kok, Hong Kong",22.3182344,114.1667942
Nam Tau Street,"Nanking St, Yau Ma Tei, Hong Kong",22.305975,114.1703397
Nanking Street,"Nassau St, Lai Chi Kok, Hong Kong",22.338678,114.139556
Nassau Street,"Nathan Rd, Hong Kong",22.3105852,114.1710601
Nathan Road,"Healthy St E, Tsat Tsz Mui, Hong Kong",22.2918665,114.207186
Nation Street,"Nelson St, Mong Kok, Hong Kong",22.3184663,114.170173
Nelson Street,"New Clear Water Bay Rd, Hong Kong",22.3330987,114.2198604
New Clear Water Bay Road,"New Eastern Terrace, Causeway Bay, Hong Kong",22.2827297,114.1934083
New Eastern Terrace,"New Market St, Sheung Wan, Hong Kong",22.2874276,114.1496082
New Market Street,"New Praya Kennedy Town, Sai Wan, Hong Kong",22.2837367,114.1266007
"New Praya, Kennedy Town","New St, Hong Kong",22.2858012,114.1468417
New Street,"Ng Fong St, San Po Kong, Hong Kong",22.3381496,114.1999726
Ng Fong Street,"Ng Fuk Ln, Sai Wan, Hong Kong",22.286599,114.1442108
Ng Fuk Lane,"Ng Kwai Fong, Hong Kong",22.2855768,114.1482697
Ng Kwai Fong,"Nga Cheung Rd, Yau Ma Tei, Hong Kong",22.3054142,114.160576
Nga Cheung Road,"Nga Chuk St, Chuk Un, Hong Kong",22.3443259,114.1942005
Nga Chuk Street,"Nga Tsin Long Rd, Kowloon City, Hong Kong",22.3291481,114.189287
Nga Tsin Long Road,"Nga Tsin Wai Rd, Hong Kong",22.3289975,114.187005
Nga Tsin Wai Road,"榮池徑, Ngau Chi Wan, Hong Kong",22.335143,114.208548
Ngan Chi Path,"Ngan Chuk Ln, Chuk Un, Hong Kong",22.3443056,114.1921162
Ngan Chuk Lane,"Ngan Fung St, Chuk Un, Hong Kong",22.3449844,114.1979792
Ngan Fung Street,"Ngan Ho Path, 彩雲一邨(彩雲南區) Hong Kong",22.332613,114.2147835
Ngan Ho Path,"Ngan Hon St, To Kwa Wan, Hong Kong",22.3144494,114.1893092
Ngan Hon Street,"Ngan Mok St, Causeway Bay, Hong Kong",22.2836642,114.1923175
Ngan Mok Street,"Ngan Yuet Ln, Kwun Tong, Hong Kong",22.3171076,114.2254164
Ngan Yuet Lane,"Ngau Chi Wan St, Ngau Chi Wan, Hong Kong",22.3349645,114.2164465
Ngau Chi Wan Street,"Ngau Tau Kok, Hong Kong",22.322466,114.2167592
Ngau Tau Kok Fifth Street,"Ngau Tau Kok, Hong Kong",22.322466,114.2167592
Ngau Tau Kok First Street,"Ngau Tau Kok, Hong Kong",22.322466,114.2167592
Ngau Tau Kok Fourth Street,"Ngau Tau Kok Rd, Ngau Tau Kok, Hong Kong",22.3217217,114.2161909
Ngau Tau Kok Road,"G/F, Shop 9-10, Island Crest,, Second St, Sai Ying Pun, Hong Kong",22.2863164,114.1431428
Ngau Tau Kok Secong Street,"Ngau Tau Kok, Hong Kong",22.322466,114.2167592
Ngau Tau Kok Third Street,"Ngo Cheung Rd, Yau Ma Tei, Hong Kong",22.3118675,114.1658655
Ngo Cheung Road,"Ngoi Man St, Shau Kei Wan, Hong Kong",22.277,114.2271027
Ngoi Man Street,"Ngong Shung Rd, Hong Kong",22.322583,114.140249
Ngong Shung Road,"Nightingale Rd, Yau Ma Tei, Hong Kong",22.3086757,114.1739477
Nightingale Road,"Ning Foo St, Chai Wan, Hong Kong",22.2653482,114.237226
Ning Foo Street,"Ning Po St, Yau Ma Tei, Hong Kong",22.3067447,114.1698353
Ning Po Street,"Ning Wah St, Tsz Wan Shan, Hong Kong",22.3494613,114.2028062
Ning Wah Street,"Sai Ying Pun, Hong Kong",22.284844,114.141209
Ning Yeung Terrace,"Ning Yuen St, Hong Kong",22.3333906,114.1958037
Ning Yuen Street,"Norfolk Rd, Hong Kong",22.3352283,114.177743
Norfolk Road,"North Point Estate Ln, North Point, Hong Kong",22.2922796,114.1987272
North Point Estate Lane,"North Point Rd, North Point, Hong Kong",22.2913187,114.196578
North Point Road,"North Point Terrace, North Point, Hong Kong",22.2888172,114.1961911
North Point Terrace,"Eastern St, Sai Ying Pun, Hong Kong",22.2874001,114.1437559
North Street,"N View St, North Point, Hong Kong",22.2896011,114.1968781
North View Street,"Northcote Cl, Sandy Bay, Hong Kong",22.2679012,114.1295114
Northcote Close,"Nullah Rd, Mong Kok, Hong Kong",22.3234126,114.1693762
Nullah Road,"Oak St, Tai Kok Tsui, Hong Kong",22.3199658,114.1640168
Oak Street,"Oaklands Ave, Mid-level, Hong Kong",22.2829785,114.1434242
Oaklands Avenue,"Oaklands Path, Mid-level, Hong Kong",22.2838638,114.1426874
Oaklands Path,"O'brien Rd, Wan Chai, Hong Kong",22.2782028,114.1733239
O'brien Road,"Observatory Ct, Tsim Sha Tsui, Hong Kong",22.3017435,114.174721
Observatory Court,"Observatory Rd, Tsim Sha Tsui, Hong Kong",22.3011478,114.1752173
Observatory Road,"Ocean Park Rd, Hong Kong",22.2468451,114.1740799
Ocean Park Road,"Oi Kan Rd, Aldrich Bay, Hong Kong",22.2831623,114.2257911
Oi Kan Road,"Oi King St, Hung Hom, Hong Kong",22.3024065,114.1873652
Oi King Street,"Oi Kwan Rd, Morrison Hill, Hong Kong",22.2763294,114.1781691
Oi Kwan Road,"Oi Lai St, Aldrich Bay, Hong Kong",22.2821965,114.2291593
Oi Lai Street,"Oi Sen Path, No. 12 Hill, Hong Kong",22.3093334,114.1796702
Oi Sen Path,"Oi Shun Rd, Hong Kong",22.283673,114.222295
Oi Shun Road,"Oi Tak St, Hong Kong",22.2823958,114.2252416
Oi Tak Street,"Oi Yee St, Hong Kong",22.2818377,114.2236121
Oi Yee Street,"Oi Yin St, Aldrich Bay, Hong Kong",22.2812182,114.2281358
Oi Yin Street,"Oil St, Hong Kong",22.2888828,114.1923202
Oil Street,"Old Bailey St, Hong Kong",22.2813889,114.1535083
Old Bailey Street,"Old Main St Aberdeen, Aberdeen, Hong Kong",22.2481271,114.1560434
"Old Main Street, Aberdeen","Old Peak Rd, The Peak, Hong Kong",22.2714161,114.1495547
Old Peak Road,"Olympic Ave, Hong Kong",22.3260882,114.1903044
Olympic Avenue,"On Ching Rd, Hung Hom, Hong Kong",22.3057315,114.1825114
On Ching Road,"On Fu Rd, Tai Po, Hong Kong",22.4484362,114.1653315
On Fu Road,"On Hing Terrace, Central, Hong Kong",22.2806907,114.1564441
On Hing Terrace,"On Lan St, Central, Hong Kong",22.28082,114.1566037
On Lan Street,"On Lok Ln, Wan Chai, Hong Kong",22.2781546,114.1788201
On Lok Lane,"On Ning Ln, Sai Wan, Hong Kong",22.2869804,114.1385874
On Ning Lane,"On Sau Rd, Hong Kong",22.3265438,114.2308613
On Sau Road,"On Shin Rd, Ngau Tau Kok, Hong Kong",22.3183671,114.2178939
On Shin Road,"On Tai Rd, Tai Po, Hong Kong",22.4537097,114.1706991
On Tai Street,"On Tak Rd, Ngau Tau Kok, Hong Kong",22.31952,114.216725
On Tak Road,"On Tin St, Lam Tin, Hong Kong",22.3076671,114.2376544
On Tin Street,"On Ting Rd, Ngau Chi Wan, Hong Kong",22.3371977,114.2082633
On Ting Road,"On Wah St, Ngau Tau Kok, Hong Kong",22.3218539,114.2167911
On Wah Street,"On Wan Rd, Hung Hom, Hong Kong",22.3035889,114.1814041
On Wan Road,"On Wo Ln, Hong Kong",22.2845931,114.1526043
On Wo Lane,"On Yip St, Chai Wan, Hong Kong",22.2668039,114.2457582
On Yip Street,"Orchid St, Hong Kong",22.3421841,114.1569462
Orchid Street,"Ormsby St, Hong Kong",22.2785722,114.1923399
Ormsby Street,"Osmanthus Rd, Yau Yat Chuen, Hong Kong",22.3292839,114.1736619
Osmanthus Road,"Oxford Rd, Kowloon Tsai, Hong Kong",22.3315365,114.180848
Oxford Road,"Pak Fuk Rd, Hong Kong",22.2890845,114.2055746
Pak Fuk Road,"Pak Hoi St, Yau Ma Tei, Hong Kong",22.3079132,114.1703763
Pak Hoi Street,"Pak Kung St, Hung Hom, Hong Kong",22.311327,114.1865244
Pak Kung Street,"Pak Pat Shan Rd, Hong Kong",22.2333091,114.2250028
Pak Pat Shan Road,"Pak Po St, Mong Kok, Hong Kong",22.3176267,114.1731486
Pak Po Street,"Pak Sha Rd, Causeway Bay, Hong Kong",22.2790449,114.1840364
Pak Sha Road,"Pak Tai St, Hong Kong",22.3220621,114.188866
Pak Tai Street,"Pak Tin St, Hong Kong",22.3354358,114.1664765
Pak Tin Street,"Pak Tsz Lane Park, 1 Pak Tsz Ln, Central, Hong Kong",22.283425,114.152883
Pak Tsz Lane,"Pak Wan St, Pak Tin, Hong Kong",22.3367977,114.1671978
Pak Wan Street,"Palm St, Tai Kok Tsui, Hong Kong",22.3193031,114.1653692
Palm Street,"Pan Hoi St, Quarry Bay, Hong Kong",22.2863342,114.2120508
Pan Hoi Street,"Kwai Yue Ln, Kwai Chung, Hong Kong",22.3518323,114.1145693
Pan Kwai Lane,"Pang Ching St, Ma Tau Kok, Hong Kong",22.321388,114.1923304
Pang Ching Street,"Parc Oasis Rd, Yau Yat Chuen, Hong Kong",22.3334019,114.1748035
Parc Oasis Road,"Park Road, Hong Kong",22.2838557,114.1453592
Park Road,"Parkes St, Hong Kong",22.3051746,114.170585
Parkes Street,"Pat Tat St, San Po Kong, Hong Kong",22.3370831,114.1979584
Pat Tat Street,"Paterson St, Causeway Bay, Hong Kong",22.2811176,114.1853991
Paterson Street,"Pau Chung St, Hong Kong",22.3201733,114.1892192
Pau Chung Street,"Peace Ave, Ho Man Tin, Hong Kong",22.3185867,114.1737431
Peace Avenue,"Peacock Rd, North Point, Hong Kong",22.2891418,114.1997739
Peacock Road,"Peak Rd, The Peak, Hong Kong",22.2667449,114.1603782
Peak Road,"Pedder St, Central, Hong Kong",22.2818783,114.1576313
Pedder Street,"Peel Rise, Hong Kong",22.2589911,114.1540572
Peel Rise,"Peel St, Hong Kong",22.2823059,114.1524315
Peel Street,"Pei Ho St, Hong Kong",22.3297737,114.1622257
Pei Ho Street,"Peking Rd, Tsim Sha Tsui, Hong Kong",22.2963182,114.1707268
Peking Road,"Pennington St, Causeway Bay, Hong Kong",22.2785925,114.1860729
Pennington Street,"Pentland St, Ma Tau Wai, Hong Kong",22.3263604,114.1843538
Pentland Street,"Peony Rd, Yau Yat Chuen, Hong Kong",22.3305644,114.1740381
Peony Road,"Percival St, Hong Kong",22.2795969,114.182832
Percival Street,"Hong Kong, 九龍紅磡民樂街21號富高工業中心A座5樓3-4室",22.310118,114.189796
Perfection Place,"Performing Arts Ave, Central, Hong Kong",22.2803961,114.1680352
Performing Arts Avenue,"Perkins Rd, Hong Kong",22.2696557,114.1932694
Perkins Road,"Perth St, Ho Man Tin, Hong Kong",22.3215521,114.1807198
Perth Street,"Pier Rd, Central, Hong Kong",22.2867358,114.1551629
Pier Road,"Pik Wan Rd, Hong Kong",22.305379,114.2385797
Pik Wan Road,"Pilgrims Way, Beacon Hill, Hong Kong",22.3417775,114.1756794
Pilgrims Way,"Pilkem St, Kwun Chung, Hong Kong",22.3043196,114.1711376
Pilkem Street,"Pine St, Tai Kok Tsui, Hong Kong",22.3206728,114.1636479
Pine Street,"Pine Tree Hill Rd, Hong Kong",22.303037,114.1734957
Pine Tree Hill Road,"Hung Hom, Hong Kong",22.30934,114.184386
Ping Chi Street,"Ping Lan St, Ap Lei Chau, Hong Kong",22.2446371,114.1569079
Ping Lan Street,"Ping On Ln, Tai Ping Shan, Hong Kong",22.2837619,114.1504053
Ping On Lane,"Ping Shing Ln, Kwun Tong, Hong Kong",22.3162855,114.2266965
Ping Shing Lane,"Ping Tin St, Lam Tin, Hong Kong",22.3085793,114.2366481
Ping Tin Street,"Ping Ting Rd, Hong Kong",22.3388419,114.2085094
Ping Ting Road,"Ping Ting Rd E, Hong Kong",22.3356376,114.2131892
Ping Ting Road East,"Pitt St, Hong Kong",22.3137642,114.1698458
Pitt Street,"Plantation Rd, The Peak, Hong Kong",22.267831,114.155189
Plantation Road,"Playing Field Rd, Mong Kok, Hong Kong",22.3253105,114.1690456
Playing Field Road,"Plunkett's Rd, The Peak, Hong Kong",22.2677937,114.1524219
Plunkett's Road,"Po Chiu Rd, Yau Tong, Hong Kong",22.2987308,114.2376768
Po Chiu Road,"Po Fong Ln, Hong Kong",22.3467544,114.203011
Po Fong Lane,"Po Hang Ln, Hong Kong",22.3464929,114.2019709
Po Hang Lane,"Po Hing Fong, Tai Ping Shan, Hong Kong",22.2843466,114.147743
Po Hing Fong,"Po King Ln, Hong Kong",22.3465578,114.2026656
Po King Lane,"Po Kong Ln, Hong Kong",22.3458007,114.1986784
Po Kong Lane,"Po Kong Village Rd, Rajgram 731222, India",22.3458555,114.2014552
Po Kong Village Road,"Po Lam Rd, Hong Kong",22.3199587,114.2450744
Po Lam Road,"Po Leung Ln, Hong Kong",22.3463808,114.2061276
Po Leung Lane,"Po Loi St, Hung Hom, Hong Kong",22.3054929,114.1863968
Po Loi Street,"Po Luen Path, Hong Kong",22.2874287,114.2049711
Po Luen Path,"Po Lun St, Lai Chi Kok, Hong Kong",22.3350264,114.1427241
Po Lun Street,"Po Man St, Shau Kei Wan, Hong Kong",22.2785128,114.2291588
Po Man Street,"Po Ming Ln, Hong Kong",22.3464635,114.2009731
Po Ming Lane,"Po On Rd, Hong Kong",22.3384466,114.1581905
Po On Road,"Po Pui St, Kwun Tong, Hong Kong",22.3172771,114.2285749
Po Pui Street,"Po Shan Rd, Mid-level, Hong Kong",22.2803704,114.1415703
Po Shan Road,"Po Shin St, Happy Valley, Hong Kong",22.2682166,114.1839842
Po Shin Street,"Po Tin Ln, Hong Kong",22.3464402,114.2016261
Po Tin Lane,"Po Tsz Ln, Tsz Wan Shan, Hong Kong",22.3463135,114.199544
Po Tsz Lane,"Po Tuck St, Sai Wan, Hong Kong",22.284753,114.1364357
Po Tuck Street,"Po Wa St, Hong Kong",22.2828275,114.1508705
Po Wa Street,"Po Wai Ln, Hong Kong",22.34625,114.201304
Po Wai Lane,"Po Yan St, Tai Ping Shan, Hong Kong",22.2850029,114.146981
Po Yan Street,"Po Yee St, Tai Ping Shan, Hong Kong",22.2850073,114.1473418
Po Yee Street,"Po Ying Ln, Hong Kong",22.3465549,114.2023415
Po Ying Lane,"Sai Yuen Ln, Sai Ying Pun, Hong Kong",22.2874258,114.1418558
Po Yuen Lane,"Pok Fu Lam Reservoir Rd, Hong Kong",22.2667519,114.1428983
Pok Fu Lam Reservoir Road,"Pok Fu Lam Rd, Hong Kong",22.267812,114.1317384
Pok Fu Lam Road,"Pok Hok Ln, Tai Kok Tsui, Hong Kong",22.3194699,114.1630884
Pok Hok Lane,"Pok Man St, Tai Kok Tsui, Hong Kong",22.3194853,114.1609832
Pok Man Street,"Pokfield Rd, Hong Kong",22.2813673,114.1309118
Pokfield Path,"Pokfield Rd, Hong Kong",22.2813673,114.1309118
Pokfield Road,"Police School Rd, Wong Chuk Hang, Hong Kong",22.2462061,114.1709731
Police School Road,"Pollock's Path, The Peak, Hong Kong",22.2688035,114.159083
Pollock's Path,"Poplar St, Hong Kong",22.3265248,114.16638
Poplar Street,"Poplar St, Hong Kong",22.3265248,114.16638
Poplar Street,"Portland St, Mong Kok, Hong Kong",22.3192018,114.1686038
Portland Street,"Possession St, Hong Kong",22.2858264,114.1482441
Possession Street,"Pottinger St, Central, Hong Kong",22.2832526,114.1558233
Pottinger Street,"Pound Ln, Tai Ping Shan, Hong Kong",22.2845677,114.1474368
Pound Lane,"Power St, North Point, Hong Kong",22.289769,114.1942219
Power Street,"Prat Ave, Tsim Sha Tsui, Hong Kong",22.298541,114.1744826
Prat Avenue,"Pratas St, Hong Kong",22.3358951,114.1600991
Pratas Street,"Praya, Kennedy Town, Sai Wan, Hong Kong",22.2850423,114.1311571
"Praya, Kennedy Town","Price Rd, Jardine's Lookout, Hong Kong",22.264853,114.191696
Price Road,"Prince Edward Rd E, Hong Kong",22.3339001,114.1990102
Prince Edward Road East,"Prince Edward Rd W, Hong Kong",22.3254999,114.1770581
Prince Edward Road West,"Prince Edward Rd W, Hong Kong",22.3254999,114.1770581
Prince Edward Road West,"Prince's Terrace, Mid-level, Hong Kong",22.2809547,114.1517549
Prince's Terrace,"Princess Margaret Rd, Hong Kong",22.311364,114.1774616
Princess Margaret Road,Hong Kong,22.396428,114.109497
Prospect Place,"Public Square St, Yau Ma Tei, Hong Kong",22.3100591,114.1697725
Public Square Street,"Pui Ching Rd, Hong Kong",22.3177941,114.1775822
Pui Ching Road,"Pui Man St, Pak Hok Shan, Hong Kong",22.3343564,114.1901756
Pui Man Street,"Pui Tak St, Hong Kong",22.3352898,114.1651407
Pui Tak Street,"Purves Rd, Jardine's Lookout, Hong Kong",22.2677272,114.1923572
Purves Road,"Quarry Bay St, Hong Kong",22.2835139,114.2121905
Quarry Bay Street,"Queen Elizabeth Hospital Path, King's Park, Hong Kong",22.3079915,114.1743818
Queen Elizabeth Hospital Path,"Queen Elizabeth Hospital Rd, Yau Ma Tei, Hong Kong",22.3085236,114.174704
Queen Elizabeth Hospital Road,"Queen Victoria St, Central, Hong Kong",22.2841508,114.1560104
Queen Street,"Queen Victoria St, Central, Hong Kong",22.2841508,114.1560104
Queen Victoria Street,"Queen's Road Central, Hong Kong",22.2832297,114.155354
Queen's Road Central,"Queen's Rd E, Hong Kong",22.2744948,114.1731538
Queen's Road East,"Queen's Rd W, Hong Kong",22.286936,114.1403321
Queen's Road West,"Queensway, Hong Kong",22.2781688,114.1645951
Queensway,Hong Kong,22.396428,114.109497
Railway Approach,"Reclamation St, Hong Kong",22.315053,114.168487
Reclamation Street,"Red Hill Rd, Hong Kong",22.2359462,114.2245165
Red Hill Road,"Rednaxela Terrace, Mid-level, Hong Kong",22.2808144,114.1516066
Rednaxela Terrace,"Rehab Path, Sai Tso Wan, Hong Kong",22.3077223,114.2301093
Rehab Path,"Renfrew Rd, Kowloon Tsai, Hong Kong",22.336652,114.181492
Renfrew Road,"Repulse Bay Rd, Hong Kong",22.2384555,114.1956824
Repulse Bay Road,"Rhondda Rd, Beacon Hill, Hong Kong",22.3438692,114.1781862
Rhondda Road,"Robinson Rd, Hong Kong",22.2812015,114.1494698
Robinson Road,"Rock Hill St, Kennedy Town, Hong Kong",22.2822543,114.1294696
Rock Hill Street,"310 Gloucester Rd, Causeway Bay, Hong Kong",22.2811761,114.1864329
Rock Lane,"Rodney St, Central, Hong Kong",22.2788269,114.1658361
Rodney Street,"Sai Wan, Hong Kong",22.285512,114.139751
Rose Lane,"Rose St, Yau Yat Chuen, Hong Kong",22.3325545,114.1729951
Rose Street,"Rosmead Rd, The Peak, Hong Kong",22.2665295,114.162824
Rosmead Road,"Rozario St, Tai Ping Shan, Hong Kong",22.2836664,114.1491474
Rozario Street,"Rumsey St, Sheung Wan, Hong Kong",22.2867607,114.1534543
Rumsey Street,"Russell St, Causeway Bay, Hong Kong",22.2788082,114.18247
Russell Street,"Rutland Quadrant, Kowloon Tong, Hong Kong",22.3333467,114.1772811
Rutland Quadrant,"Rutter Ln, Tai Ping Shan, Hong Kong",22.2842894,114.1467387
Rutter Street,"Sa Po Rd, Kowloon City, Hong Kong",22.3299432,114.1927411
Sa Po Road,"Sai Cheung St, Sai Wan, Hong Kong",22.2850107,114.1317069
Sai Cheung Street,"Sai Cheung St N, Sai Wan, Hong Kong",22.2857264,114.1309716
Sai Cheung Street North,"Sai Chuen Rd, Sham Shui Po, Hong Kong",22.3289233,114.1554576
Sai Chuen Road,"Sai Hing Ln, Sai Wan, Hong Kong",22.2869013,114.1393095
Sai Hing Lane,"Sai Hong Ln, Sai Wan, Hong Kong",22.2846007,114.1311861
Sai Hong Lane,"Sai Ning St, Sai Wan, Hong Kong",22.281809,114.121586
Sai Ning Street,"Sai On Ln, Sai Wan, Hong Kong",22.2867515,114.1377033
Sai On Lane,"Sai St, Tai Ping Shan, Hong Kong",22.2849379,114.1487323
Sai On Street,"Sai See St, Kennedy Town, Hong Kong",22.2824112,114.1247017
Sai See Street,"Sai St, Tai Ping Shan, Hong Kong",22.2849379,114.1487323
Sai Street,"Sai Wa Ln, Sai Wan, Hong Kong",22.286386,114.140421
Sai Wa Lane,"Sai Wan Ho St, Hong Kong",22.2809747,114.2221652
Sai Wan Ho Street,"Sai Wan Terrace, Kornhill, Hong Kong",22.2845224,114.2184789
Sai Wan Terrace,"Sai Woo Ln, Sai Wan, Hong Kong",22.287542,114.144049
Sai Woo Lane,"Sai Yee St, Mong Kok, Hong Kong",22.3218745,114.171301
Sai Yee Street,"Sai Yeung Choi St S, Mong Kok, Hong Kong",22.3196283,114.1699479
Sai Yeung Choi Lane,"Sai Yeung Choi St N, Hong Kong",22.327846,114.167902
Sai Yeung Choi Street North,"Sai Yeung Choi St N, Hong Kong",22.327846,114.167902
Sai Yeung Choi Street North,"Sai Yeung Choi St S, Mong Kok, Hong Kong",22.3196283,114.1699479
Sai Yeung Choi Street South,"Sai Yuen Ln, Sai Ying Pun, Hong Kong",22.2874258,114.1418558
Sai Yuen Lane,"Sai Yun Ln, Shau Kei Wan, Hong Kong",22.2798836,114.230479
Sai Yun Lane,"Saigon St, Yau Ma Tei, Hong Kong",22.3073595,114.1699819
Saigon Street,"Salisbury Rd, Hong Kong",22.2965575,114.1769323
Salisbury Road,"Salvation Army St, Wan Chai, Hong Kong",22.2761632,114.1774018
Salvation Army Street,"Sam Chuk St, San Po Kong, Hong Kong",22.33592,114.1978874
Sam Chuk Street,"Sam Ka Ln, Central, Hong Kong",22.2835322,114.1529327
Sam Ka Lane,"Sam Pan St, Wan Chai, Hong Kong",22.2750301,114.1728475
Sam Pan Street,"Sam To Ln, Sai Wan, Hong Kong",22.2864458,114.1397414
Sam To Lane,"San Francisco Path, Ho Man Tin, Hong Kong",22.3191811,114.1748894
San Francisco Path,"San Ha St, Chai Wan, Hong Kong",22.2646933,114.2424056
San Ha Street,"San Lau St, Hung Hom, Hong Kong",22.3124682,114.1866652
San Lau Street,"San Lee St, Cha Liu Au, Hong Kong",22.332264,114.22443
San Lee Street,"San Ma Tau St, Hong Kong",22.3186818,114.193118
San Ma Tau Street,"San Shan Rd, Hong Kong",22.3204837,114.1899997
San Shan Road,"San Shi St, Ap Lei Chau, Hong Kong",22.2440906,114.1570491
San Shi Street,"Cheung Shun St, Cheung Sha Wan, Hong Kong",22.3363403,114.1472568
San Shun Street,"San Wai St, Hung Hom, Hong Kong",22.3119595,114.1865156
San Wai Street,"Sands St, Sai Wan, Hong Kong",22.2830801,114.130297
Sands Street,"Sandy Bay Rd, Hong Kong",22.2717693,114.1249494
Sandy Bay Road,"Sassoon Rd, Hong Kong",22.266841,114.1282466
Sassoon Road,"Sau Chuk Yuen Rd, Kowloon Tsai, Hong Kong",22.32811,114.1850276
Sau Chuk Yuen Road,"Sau Fung St, Sau Mau Ping, Hong Kong",22.3186245,114.2327189
Sau Fung Street,"Sau Lai St, Hong Kong",22.3199985,114.230211
Sau Lai Street,Hong Kong,22.396428,114.109497
Sau Mau Path,"Sau Mau Ping Rd, Hong Kong",22.3198941,114.2335233
Sau Mau Ping Road,"Sau Ming Rd, Sau Mau Ping, Hong Kong",22.318907,114.2318127
Sau Ming Road,"Sau Nga Rd, Hong Kong",22.3229154,114.2273822
Sau Nga Road,Hong Kong,22.396428,114.109497
Sau Po Street,"Sau Wa Fong, Wan Chai, Hong Kong",22.2757725,114.1694807
Sau Wa Fong,"Sau Yan Path, Ngau Tau Kok, Hong Kong",22.3197789,114.2208797
Sau Yan Path,"Sceneway Rd, Hong Kong",22.3068677,114.2341437
Sceneway Road,"Scenic Villa Dr, Sandy Bay, Hong Kong",22.2691729,114.1250948
Scenic Villa Drive,"School St, Tai Hang, Hong Kong",22.2787936,114.1916413
School Street,"Schooner St, Wan Chai, Hong Kong",22.2753205,114.1699487
Schooner Street,"Science Museum Rd, Hong Kong",22.3012141,114.1786833
Science Museum Path,"Science Museum Rd, Hong Kong",22.3012141,114.1786833
Science Museum Road,"Science Museum Square, Tsim Sha Tsui East, Hong Kong",22.3004341,114.1788811
Science Museum Square,"Scout Path, Tsim Sha Tsui, Hong Kong",22.3024565,114.1691469
Scout Path,"Seaview Promenade, Hong Kong",22.2380782,114.1880761
Seaview Promenade,"Second St, Sai Wan, Hong Kong",22.2861863,114.1413355
Second Lane,"Second St, Sai Wan, Hong Kong",22.2861863,114.1413355
Second Street,"Selkirk Rd, Kowloon Tsai, Hong Kong",22.3312083,114.180192
Selkirk Road,"Severn Rd, The Peak, Hong Kong",22.2697546,114.158186
Severn Road,"Seymour Rd, Mid-level, Hong Kong",22.2823212,114.1496506
Seymour Road,"Seymour Terrace, Mid-level, Hong Kong",22.2812228,114.1500386
Seymour Terrace,"Sha Wan Dr, Sandy Bay, Hong Kong",22.267723,114.125446
Sha Wan Drive,"Sham Mong Rd, Hong Kong",22.3290027,114.1525742
Sham Mong Road,"Sham Mong Rd, Hong Kong",22.3290027,114.1525742
Sham Mong Road,"Sham Shing Rd, Cheung Sha Wan, Hong Kong",22.3337453,114.1484016
Sham Shing Road,"Shamchun St, Mong Kok, Hong Kong",22.3188744,114.1667719
Shamchun Street,"Shan Kwong Rd, Happy Valley, Hong Kong",22.2670728,114.1853468
Shan Kwong Road,"Shan Ming St, Ap Lei Chau, Hong Kong",22.2444803,114.1575006
Shan Ming Street,"Shan Pin Terrace, Shau Kei Wan, Hong Kong",22.2802505,114.2308948
Shan Pin Lane,"Shan Pin Terrace, Shau Kei Wan, Hong Kong",22.2802505,114.2308948
Shan Pin Terrace,"Shanghai St, Hong Kong",22.3133726,114.1692878
Shanghai Street,Hong Kong,22.396428,114.109497
Shansi Street,"Shantung Street, Mong Kok, Hong Kong",22.3175109,114.169705
Shantung Street,"Sharp St E, Causeway Bay, Hong Kong",22.2780164,114.1823348
Sharp Street East,"Sharp St W, Wan Chai, Hong Kong",22.2776242,114.1805677
Sharp Street West,"Shatin Pass Rd, Hong Kong",22.3543948,114.2030266
Shatin Pass Road,"Shau Kei Wan Main St E, Shau Kei Wan, Hong Kong",22.279609,114.230166
Shau Kei Wan Main Street East,"Shau Kei Wan Rd, Hong Kong",22.2803469,114.2249572
Shau Kei Wan Road,"Shek Chan Ln, Sai Wan, Hong Kong",22.2872172,114.1410908
Shek Chan Lane,"Shek Kip Mei St, Hong Kong",22.3292761,114.1647681
Shek Kai Lane,"Shek Ku Lung Rd, Kowloon City, Hong Kong",22.3298512,114.1931138
Shek Kip Mei Street,"Shek Ku St, Hong Kong",22.3199773,114.1803446
Shek Ku Lung Road,"Shek Lung St, Yau Ma Tei, Hong Kong",22.3119615,114.1683263
Shek Ku Street,"Shek O Headland Rd, Shek O, Hong Kong",22.2293269,114.2544713
Shek Lung Street,"Shek O Headland Rd, Shek O, Hong Kong",22.2293269,114.2544713
Shek O Headland,"Shek O Rd, Hong Kong",22.2417678,114.2383553
Shek O Headland Road,"Shek O, Hong Kong",22.2334016,114.2420218
Shek O Road,"Shek O Village Rd, Shek O, Hong Kong",22.2300368,114.252543
Shek O Village,"Shek Pai Wan Rd, Hong Kong",22.2493581,114.1451694
Shek O Village Road,"Shek Tong St, Lo Lung Hang, Hong Kong",22.3128033,114.1870897
Shek Pai Wan Road,"Shell St, Hong Kong",22.2868899,114.1924814
